67,W,2,09,1.40,259.1,M,-31.5,M,,0000*75

$GNGSA,A,3,19,06,02,48,24,12,28,,,,,,2.14,1.40,1.62*14

$GNGSA,A,3,88,87,,,,,,,,,,,2.14,1.40,1.62*14

$GPGSV,4,1,15,01,11,058,,02,20,244,33,03,35,058,,06,57,245,26*7D

$GPGSV,4,2,15,11,02,077,09,12,14,320,23,17,76,045,13,19,71,325,20*7A

$GPGSV,4,3,15,22,19,045,,23,03,100,,24,15,288,29,28,32,162,18*7C

$GPGSV,4,4,15,46,14,245,34,48,11,249,34,51,27,225,*4E

$GLGSV,3,1,11,65,03,161,,70,08,017,,71,34,062,,72,30,123,*6B

$GLGSV,3,2,11,76,02,192,,77,39,238,,78,37,306,18,79,10,341,*60

$GLGSV,3,3,11,86,29,067,09,87,63,345,26,88,29,285,18*59

$GNGLL,4522.91614,N,07155.42067,W,022554.00,A,D*6F

$GNRMC,022555.00,A,4522.91605,N,07155.42034,W,0.111,,190318,,,D*72

$GNVTG,,T,,M,0.111,N,0.206,K,D*3D

$GNGGA,022555.00,4522.91605,N,07155.42034,W,2,09,1.40,258.9,M,-31.5,M,,0000*7B

$GNGSA,A,3,19,06,02,48,24,12,28,,,,,,2.14,1.40,1.62*14

$GNGSA,A,3,88,87,,,,,,,,,,,2.14,1.40,1.62*14

$GPGSV,4,1,15,01,11,058,,02,20,244,36,03,35,058,,06,57,245,25*7B

$GPGSV,4,2,15,11,02,077,11,12,14,320,22,17,76,045,15,19,71,325,21*75

$GPGSV,4,3,15,22,19,045,,23,03,100,,24,15,288,29,28,32,162,19*7D

$GPGSV,4,4,15,46,14,245,36,48,11,249,34,51,27,225,*4C

$GLGSV,3,1,11,65,03,161,,70,08,017,,71,34,062,,72,30,123,*6B

$GLGSV,3,2,11,76,02,192,,77,39,238,,78,37,306,18,79,10,341,*60

$GLGSV,3,3,11,86,29,067,10,87,63,345,26,88,29,285,17*5E

$GNGLL,4522.91605,N,07155.42034,W,022555.00,A,D*68

$GNRMC,022556.00,A,4522.91596,N,07155.42029,W,0.089,,190318,,,D*74

$GNVTG,,T,,M,0.089,N,0.164,K,D*3A

$GNGGA,022556.00,4522.91596,N,07155.42029,W,2,10,1.35,259.0,M,-31.5,M,,0000*7F

$GNGSA,A,3,19,06,02,17,48,24,12,28,,,,,2.10,1.35,1.61*17

$GNGSA,A,3,88,87,,,,,,,,,,,2.10,1.35,1.61*11

$GPGSV,4,1,15,01,11,058,,02,20,244,35,03,35,058,06,06,57,245,21*7A

$GPGSV,4,2,15,11,02,077,10,12,14,320,20,17,76,045,21,19,71,325,20*70

$GPGSV,4,3,15,22,19,045,,23,03,100,,24,15,288,29,28,32,162,18*7C

$GPGSV,4,4,15,46,14,245,36,48,11,249,34,51,27,225,*4C

$GLGSV,3,1,11,65,03,161,,70,08,017,,71,34,062,,72,30,123,*6B

$GLGSV,3,2,11,76,02,192,,77,39,238,,78,37,306,16,79,10,341,*6E

$GLGSV,3,3,11,86,29,067,11,87,63,345,25,88,29,285,17*5C

$GNGLL,4522.91596,N,07155.42029,W,022556.00,A,D*6E

$GNRMC,022557.00,A,4522.91589,N,07155.41996,W,0.107,,190318,,,D*72

$GNVTG,,T,,M,0.107,N,0.197,K,D*31

$GNGGA,022557.00,4522.91589,N,07155.41996,W,2,10,1.35,258.6,M,-31.5,M,,0000*79

$GNGSA,A,3,19,06,02,17,48,24,12,28,,,,,2.10,1.35,1.61*17

$GNGSA,A,3,88,87,,,,,,,,,,,2.10,1.35,1.61*11

$GPGSV,4,1,15,01,11,058,,02,20,244,35,03,35,058,09,06,57,245,21*75

$GPGSV,4,2,15,11,02,077,10,12,14,320,17,17,76,045,22,19,71,325,20*77

$GPGSV,4,3,15,22,19,045,,23,03,100,,24,15,288,27,28,32,162,17*7D

$GPGSV,4,4,15,46,14,245,35,48,11,249,34,51,27,225,*4F

$GLGSV,3,1,11,65,03,161,,70,08,017,,71,34,062,,72,30,123,*6B

$GLGSV,3,2,11,76,02,192,,77,39,238,,78,37,306,17,79,10,341,*6F

$GLGSV,3,3,11,86,29,067,09,87,63,345,26,88,29,285,16*57

$GNGLL,4522.91589,N,07155.41996,W,022557.00,A,D*6F

$GNRMC,022558.00,A,4522.91589,N,07155.41994,W,0.221,,190318,,,D*78

$GNVTG,,T,,M,0.221,N,0.409,K,D*34

$GNGGA,022558.00,4522.91589,N,07155.41994,W,2,10,1.35,258.5,M,-31.5,M,,0000*77

$GNGSA,A,3,19,06,02,17,48,24,12,28,,,,,2.10,1.35,1.61*17

$GNGSA,A,3,88,87,,,,,,,,,,,2.10,1.35,1.61*11

$GPGSV,4,1,15,01,11,058,,02,20,244,37,03,35,058,12,06,57,245,17*78

$GPGSV,4,2,15,11,02,077,10,12,14,320,17,17,76,045,23,19,71,325,20*76

$GPGSV,4,3,15,22,19,045,,23,03,100,,24,15,288,18,28,32,162,16*70

$GPGSV,4,4,15,46,14,245,37,48,11,249,37,51,27,225,*4E

$GLGSV,3,1,11,65,03,161,,70,08,017,,71,34,062,,72,30,123,*6B

$GLGSV,3,2,11,76,02,192,,77,39,238,,78,37,306,18,79,10,341,*60

$GLGSV,3,3,11,86,29,067,12,87,63,345,25,88,29,285,18*50

$GNGLL,4522.91589,N,07155.41994,W,022558.00,A,D*62

$GNRMC,022559.00,A,4522.91592,N,07155.42012,W,0.195,,190318,,,D*7B

$GNVTG,,T,,M,0.195,N,0.360,K,D*30

$GNGGA,022559.00,4522.91592,N,07155.42012,W,2,08,2.67,258.7,M,-31.5,M,,0000*77

$GNGSA,A,3,19,02,17,48,24,12,,,,,,,4.01,2.67,2.99*1D

$GNGSA,A,3,88,87,,,,,,,,,,,4.01,2.67,2.99*17

$GPGSV,4,1,15,01,11,058,,02,20,244,38,03,35,058,10,06,57,245,*73

$GPGSV,4,2,15,11,02,077,10,12,14,320,16,17,76,045,25,19,71,325,19*7B

$GPGSV,4,3,15,22,19,045,,23,03,100,,24,15,288,21,28,32,162,*7D

$GPGSV,4,4,15,46,14,245,38,48,11,249,38,51,27,225,*4E

$GLGSV,3,1,11,65,03,161,,70,08,017,,71,34,062,,72,30,123,*6B

$GLGSV,3,2,11,76,02,192,,77,39,238,,78,37,306,19,79,10,341,*61

$GLGSV,3,3,11,86,29,067,10,87,63,345,26,88,29,285,19*50

$GNGLL,4522.91592,N,07155.42012,W,022559.00,A,D*6D

$GNRMC,022600.00,A,4522.91588,N,07155.42025,W,0.109,,190318,,,D*7E

$GNVTG,,T,,M,0.109,N,0.203,K,D*31

$GNGGA,022600.00,4522.91588,N,07155.42025,W,2,08,2.67,258.9,M,-31.5,M,,0000*79

$GNGSA,A,3,19,02,17,48,24,12,,,,,,,4.01,2.67,2.99*1D

$GNGSA,A,3,88,87,,,,,,,,,,,4.01,2.67,2.99*17

$GPGSV,4,1,15,01,11,058,,02,20,244,39,03,35,058,11,06,57,245,22*73

$GPGSV,4,2,15,11,02,077,,12,14,320,15,17,76,045,26,19,71,325,19*7A

$GPGSV,4,3,15,22,19,045,,23,03,100,,24,15,288,23,28,32,162,*7F

$GPGSV,4,4,15,46,14,245,40,48,11,249,38,51,27,225,*41

$GLGSV,3,1,11,65,03,161,,70,08,017,,71,34,062,,72,30,123,*6B

$GLGSV,3,2,11,76,02,192,,77,39,238,21,78,37,306,20,79,10,341,*68

$GLGSV,3,3,11,86,29,067,11,87,63,345,26,88,29,285,20*5B

$GNGLL,4522.91588,N,07155.42025,W,022600.00,A,D*6D

$GNRMC,022601.00,A,4522.91608,N,07155.42085,W,0.524,,190318,,,D*75

$GNVTG,,T,,M,0.524,N,0.970,K,D*35

$GNGGA,022601.00,4522.91608,N,07155.42085,W,2,09,1.37,259.2,M,-31.5,M,,0000*74

$GNGSA,A,3,19,02,17,48,24,12,03,,,,,,2.04,1.37,1.51*1C

$GNGSA,A,3,88,87,,,,,,,,,,,2.04,1.37,1.51*15

$GPGSV,4,1,15,01,11,058,16,02,20,244,37,03,35,058,12,06,57,245,20*7B

$GPGSV,4,2,15,11,02,077,,12,14,320,18,17,76,045,23,19,71,325,18*73

$GPGSV,4,3,15,22,19,045,,23,03,100,,24,15,288,24,28,32,162,*78

$GPGSV,4,4,15,46,14,245,36,48,11,249,34,51,27,225,*4C

$GLGSV,3,1,11,65,03,161,,70,08,017,,71,34,062,,72,30,123,*6B

$GLGSV,3,2,11,76,02,192,,77,39,238,21,78,37,306,21,79,10,341,*69

$GLGSV,3,3,11,86,29,067,11,87,63,345,26,88,29,285,19*51

$GNGLL,4522.91608,N,07155.42085,W,022601.00,A,D*6D

$GNRMC,022602.00,A,4522.91620,N,07155.42114,W,0.536,,190318,,,D*76

$GNVTG,,T,,M,0.536,N,0.992,K,D*3A

$GNGGA,022602.00,4522.91620,N,07155.42114,W,2,09,1.37,259.4,M,-31.5,M,,0000*72

$GNGSA,A,3,19,02,17,48,24,12,03,,,,,,2.04,1.37,1.51*1C

$GNGSA,A,3,88,87,,,,,,,,,,,2.04,1.37,1.51*15

$GPGSV,4,1,15,01,11,058,14,02,20,244,32,03,35,058,12,06,57,245,17*78

$GPGSV,4,2,15,11,02,077,,12,14,320,19,17,76,045,22,19,71,325,17*7C

$GPGSV,4,3,15,22,19,045,,23,03,100,,24,15,288,23,28,32,162,19*77

$GPGSV,4,4,15,46,14,245,31,48,11,249,29,51,27,225,*47

$GLGSV,3,1,11,65,03,161,,70,08,017,,71,34,062,,72,30,123,*6B

$GLGSV,3,2,11,76,02,192,,77,39,238,19,78,37,306,22,79,10,341,*61

$GLGSV,3,3,11,86,29,067,11,87,63,345,26,88,29,285,17*5F

$GNGLL,4522.91620,N,07155.42114,W,022602.00,A,D*6D

$GNRMC,022603.00,A,4522.91630,N,07155.42121,W,0.550,,190318,,,D*70

$GNVTG,,T,,M,0.550,N,1.018,K,D*30

$GNGGA,022603.00,4522.91630,N,07155.42121,W,2,09,1.37,259.4,M,-31.5,M,,0000*74

$GNGSA,A,3,19,02,17,48,24,12,03,,,,,,2.04,1.37,1.51*1C

$GNGSA,A,3,88,87,,,,,,,,,,,2.04,1.37,1.51*15

$GPGSV,4,1,15,01,11,058,14,02,20,244,41,03,35,058,16,06,57,245,22*7E

$GPGSV,4,2,15,11,02,077,,12,14,320,21,17,76,045,21,19,71,325,18*7B

$GPGSV,4,3,15,22,19,045,,23,03,100,,24,15,288,28,28,32,162,*74

$GPGSV,4,4,15,46,14,245,37,48,11,249,41,51,27,225,*4F

$GLGSV,3,1,11,65,03,161,,70,08,017,,71,34,062,,72,30,123,*6B

$GLGSV,3,2,11,76,02,192,,77,39,238,21,78,37,306,23,79,10,341,*6B

$GLGSV,3,3,11,86,29,067,09,87,63,345,26,88,29,285,19*58

$GNGLL,4522.91630,N,07155.42121,W,022603.00,A,D*6B

$GNRMC,022604.00,A,4522.91633,N,07155.42118,W,0.352,,190318,,,D*7A

$GNVTG,,T,,M,0.352,N,0.652,K,D*3D

$GNGGA,022604.00,4522.91633,N,07155.42118,W,2,09,1.37,259.5,M,-31.5,M,,0000*7B

$GNGSA,A,3,19,02,17,48,24,12,03,,,,,,2.04,1.37,1.51*1C

$GNGSA,A,3,88,87,,,,,,,,,,,2.04,1.37,1.51*15

$GPGSV,4,1,15,01,11,058,14,02,20,244,41,03,35,058,12,06,57,245,19*72

$GPGSV,4,2,15,11,02,077,,12,14,320,20,17,76,045,22,19,71,325,20*72

$GPGSV,4,3,15,22,19,045,,23,03,100,,24,15,288,19,28,32,162,*76

$GPGSV,4,4,15,46,14,245,38,48,11,249,41,51,27,225,*40

$GLGSV,3,1,11,65,03,161,,70,07,017,,71,34,062,,72,30,123,*64

$GLGSV,3,2,11,76,02,192,,77,39,238,24,78,37,306,24,79,10,341,23*68

$GLGSV,3,3,11,86,29,067,09,87,63,345,27,88,29,285,22*51

$GNGLL,4522.91633,N,07155.42118,W,022604.00,A,D*65

$GNRMC,022605.00,A,4522.91642,N,07155.42121,W,0.298,,190318,,,D*70

$GNVTG,,T,,M,0.298,N,0.551,K,D*3A

$GNGGA,022605.00,4522.91642,N,07155.42121,W,2,08,1.42,259.5,M,-31.5,M,,0000*75

$GNGSA,A,3,19,02,17,48,12,03,,,,,,,2.09,1.42,1.53*17

$GNGSA,A,3,88,87,,,,,,,,,,,2.09,1.42,1.53*18

$GPGSV,4,1,15,01,11,058,11,02,20,244,40,03,35,058,12,06,57,245,16*79

$GPGSV,4,2,15,11,02,077,,12,14,320,18,17,76,045,22,19,71,325,21*78

$GPGSV,4,3,15,22,19,045,,23,03,100,,24,15,288,,28,32,162,*7E

$GPGSV,4,4,15,46,14,245,38,48,11,249,41,51,27,225,*40

$GLGSV,3,1,11,65,03,161,,70,07,017,,71,34,061,,72,30,123,*67

$GLGSV,3,2,11,76,02,192,,77,39,238,26,78,37,306,25,79,10,341,23*6B

$GLGSV,3,3,11,86,29,067,07,87,63,345,28,88,29,285,24*56

$GNGLL,4522.91642,N,07155.42121,W,022605.00,A,D*68

$GNRMC,022606.00,A,4522.91641,N,07155.42193,W,0.062,,190318,,,D*7E

$GNVTG,,T,,M,0.062,N,0.115,K,D*39

$GNGGA,022606.00,4522.91641,N,07155.42193,W,2,09,1.26,260.8,M,-31.5,M,,0000*78

$GNGSA,A,3,19,02,17,48,12,03,01,,,,,,1.68,1.26,1.11*16

$GNGSA,A,3,88,87,,,,,,,,,,,1.68,1.26,1.11*18

$GPGSV,4,1,15,01,11,058,11,02,20,244,41,03,35,058,10,06,57,245,*7D

$GPGSV,4,2,15,11,02,077,,12,14,320,17,17,76,045,23,19,71,325,20*77

$GPGSV,4,3,15,22,19,045,,23,03,100,,24,15,288,22,28,32,162,*7E

$GPGSV,4,4,15,46,14,245,38,48,11,249,41,51,27,225,*40

$GLGSV,3,1,11,65,03,161,,70,07,017,,71,34,061,,72,30,123,*67

$GLGSV,3,2,11,76,02,192,,77,39,238,26,78,37,306,24,79,10,341,23*6A

$GLGSV,3,3,11,86,29,067,07,87,63,345,28,88,29,285,23*51

$GNGLL,4522.91641,N,07155.42193,W,022606.00,A,D*61

$GNRMC,022607.00,A,4522.91662,N,07155.42342,W,0.204,,190318,,,D*72

$GNVTG,,T,,M,0.204,N,0.379,K,D*33

$GNGGA,022607.00,4522.91662,N,07155.42342,W,2,09,1.26,262.6,M,-31.5,M,,0000*7A

$GNGSA,A,3,19,02,17,48,12,03,01,,,,,,1.68,1.26,1.11*16

$GNGSA,A,3,88,87,,,,,,,,,,,1.68,1.26,1.11*18

$GPGSV,4,1,15,01,11,058,12,02,20,244,39,03,35,058,11,06,57,245,*70

$GPGSV,4,2,15,11,02,077,,12,14,320,17,17,76,045,23,19,71,325,20*77

$GPGSV,4,3,15,22,19,045,,23,03,100,,24,15,288,22,28,32,162,*7E

$GPGSV,4,4,15,46,14,245,37,48,11,249,40,51,27,225,*4E

$GLGSV,3,1,11,65,03,161,,70,07,017,,71,34,061,,72,30,123,*67

$GLGSV,3,2,11,76,02,192,,77,39,238,26,78,37,306,25,79,10,341,23*6B

$GLGSV,3,3,11,86,29,067,07,87,63,345,29,88,29,285,23*50

$GNGLL,4522.91662,N,07155.42342,W,022607.00,A,D*6F

$GNRMC,022608.00,A,4522.91675,N,07155.42357,W,0.162,,190318,,,D*7C

$GNVTG,,T,,M,0.162,N,0.301,K,D*3F

$GNGGA,022608.00,4522.91675,N,07155.42357,W,2,09,1.42,262.8,M,-31.5,M,,0000*7B

$GNGSA,A,3,19,02,17,48,24,12,03,,,,,,2.09,1.42,1.53*11

$GNGSA,A,3,88,87,,,,,,,,,,,2.09,1.42,1.53*18

$GPGSV,4,1,15,01,11,058,10,02,20,244,39,03,35,058,08,06,57,245,*7A

$GPGSV,4,2,15,11,02,077,,12,14,320,15,17,76,045,23,19,71,325,19*7F

$GPGSV,4,3,15,22,19,045,,23,03,100,,24,15,288,21,28,32,162,*7D

$GPGSV,4,4,15,46,14,245,36,48,11,249,39,51,27,225,*41

$GLGSV,3,1,11,65,03,161,,70,07,017,,71,34,061,,72,30,123,*67

$GLGSV,3,2,11,76,02,192,,77,39,238,26,78,37,306,25,79,10,341,23*6B

$GLGSV,3,3,11,86,29,067,07,87,63,345,29,88,29,285,23*50

$GNGLL,4522.91675,N,07155.42357,W,022608.00,A,D*62

$GNRMC,022609.00,A,4522.91696,N,07155.42383,W,0.276,,190318,,,D*7F

$GNVTG,,T,,M,0.276,N,0.511,K,D*3E

$GNGGA,022609.00,4522.91696,N,07155.42383,W,2,08,2.74,262.9,M,-31.5,M,,0000*78

$GNGSA,A,3,19,02,17,48,24,12,,,,,,,4.06,2.74,3.00*19

$GNGSA,A,3,88,87,,,,,,,,,,,4.06,2.74,3.00*13

$GPGSV,4,1,15,01,11,058,08,02,20,244,39,03,35,058,07,06,57,245,*7C

$GPGSV,4,2,15,11,02,077,,12,14,320,14,17,76,045,23,19,71,325,18*7F

$GPGSV,4,3,15,22,19,045,,23,03,100,,24,15,288,21,28,32,162,*7D

$GPGSV,4,4,15,46,14,245,36,48,11,249,40,51,27,225,*4F

$GLGSV,3,1,11,65,03,161,,70,07,017,,71,34,061,,72,30,123,*67

$GLGSV,3,2,11,76,02,192,,77,39,238,26,78,37,306,25,79,10,341,23*6B

$GLGSV,3,3,11,86,29,067,11,87,63,345,29,88,29,285,23*57

$GNGLL,4522.91696,N,07155.42383,W,022609.00,A,D*67

$GNRMC,022610.00,A,4522.91703,N,07155.42379,W,0.257,,190318,,,D*7C

$GNVTG,,T,,M,0.257,N,0.475,K,D*3E

$GNGGA,022610.00,4522.91703,N,07155.42379,W,2,09,1.42,262.8,M,-31.5,M,,0000*7E

$GNGSA,A,3,19,02,17,48,24,12,03,,,,,,2.09,1.42,1.53*11

$GNGSA,A,3,88,87,,,,,,,,,,,2.09,1.42,1.53*18

$GPGSV,4,1,15,01,11,058,08,02,20,244,39,03,35,058,08,06,57,245,*73

$GPGSV,4,2,15,11,02,077,,12,14,320,13,17,76,045,23,19,71,325,17*77

$GPGSV,4,3,15,22,19,045,,23,03,100,,24,15,288,20,28,32,162,*7C

$GPGSV,4,4,15,46,14,245,35,48,11,249,39,51,27,225,*42

$GLGSV,3,1,11,65,03,161,,70,07,017,,71,34,061,,72,30,123,*67

$GLGSV,3,2,11,76,02,192,,77,39,238,26,78,37,306,25,79,10,341,23*6B

$GLGSV,3,3,11,86,29,067,08,87,63,345,29,88,29,285,22*5E

$GNGLL,4522.91703,N,07155.42379,W,022610.00,A,D*67

$GNRMC,022611.00,A,4522.91691,N,07155.42357,W,0.150,,190318,,,D*7F

$GNVTG,,T,,M,0.150,N,0.277,K,D*3E

$GNGGA,022611.00,4522.91691,N,07155.42357,W,2,09,1.37,262.8,M,-31.5,M,,0000*7B

$GNGSA,A,3,19,02,17,48,24,12,03,,,,,,2.04,1.37,1.51*1C

$GNGSA,A,3,88,87,,,,,,,,,,,2.04,1.37,1.51*15

$GPGSV,4,1,15,01,11,058,07,02,20,244,39,03,35,058,08,06,57,245,*7C

$GPGSV,4,2,15,11,02,077,,12,14,320,14,17,76,045,24,19,71,325,15*75

$GPGSV,4,3,15,22,19,045,07,23,03,100,,24,15,288,20,28,32,162,*7B

$GPGSV,4,4,15,46,14,245,35,48,11,249,40,51,27,225,*4C

$GLGSV,3,1,11,65,03,161,,70,07,017,,71,34,061,,72,30,123,*67

$GLGSV,3,2,11,76,02,192,,77,38,238,26,78,37,306,25,79,10,341,23*6A

$GLGSV,3,3,11,86,29,067,10,87,63,345,29,88,29,285,23*56

$GNGLL,4522.91691,N,07155.42357,W,022611.00,A,D*60

$GNRMC,022612.00,A,4522.91673,N,07155.42321,W,0.208,,190318,,,D*7F

$GNVTG,,T,,M,0.208,N,0.386,K,D*3F

$GNGGA,022612.00,4522.91673,N,07155.42321,W,2,09,1.37,262.8,M,-31.5,M,,0000*75

$GNGSA,A,3,19,02,17,48,24,12,03,,,,,,2.04,1.37,1.51*1C

$GNGSA,A,3,88,87,,,,,,,,,,,2.04,1.37,1.51*15

$GPGSV,4,1,15,01,11,058,07,02,20,244,39,03,35,058,12,06,57,245,*77

$GPGSV,4,2,15,11,02,077,,12,14,320,15,17,76,045,23,19,71,325,14*72

$GPGSV,4,3,15,22,19,045,08,23,03,100,,24,15,288,21,28,32,162,*75

$GPGSV,4,4,15,46,14,245,35,48,11,249,39,51,27,225,*42

$GLGSV,3,1,11,65,03,161,,70,07,017,,71,34,061,,72,30,123,*67

$GLGSV,3,2,11,76,02,192,,77,38,238,27,78,37,305,24,79,10,341,23*69

$GLGSV,3,3,11,86,29,067,09,87,63,345,29,88,29,285,23*5E

$GNGLL,4522.91673,N,07155.42321,W,022612.00,A,D*6E

$GNRMC,022613.00,A,4522.91670,N,07155.42314,W,0.232,,190318,,,D*72

$GNVTG,,T,,M,0.232,N,0.430,K,D*3C

$GNGGA,022613.00,4522.91670,N,07155.42314,W,2,09,1.37,262.8,M,-31.5,M,,0000*71

$GNGSA,A,3,19,02,17,48,24,12,03,,,,,,2.04,1.37,1.51*1C

$GNGSA,A,3,88,87,,,,,,,,,,,2.04,1.37,1.51*15

$GPGSV,4,1,15,01,11,058,07,02,20,244,39,03,35,058,10,06,57,245,*75

$GPGSV,4,2,15,11,02,077,,12,14,320,17,17,76,045,24,19,71,325,13*70

$GPGSV,4,3,15,22,19,045,12,23,03,100,,24,15,288,22,28,32,162,*7D

$GPGSV,4,4,15,46,14,245,35,48,11,249,39,51,27,225,*42

$GLGSV,3,1,11,65,03,161,,70,07,017,,71,34,061,,72,30,123,*67

$GLGSV,3,2,11,76,02,192,,77,38,238,27,78,37,305,25,79,10,341,23*68

$GLGSV,3,3,11,86,29,067,11,87,63,345,29,88,29,285,23*57

$GNGLL,4522.91670,N,07155.42314,W,022613.00,A,D*6A

$GNRMC,022614.00,A,4522.91691,N,07155.42329,W,0.048,,190318,,,D*7B

$GNVTG,,T,,M,0.048,N,0.088,K,D*34

$GNGGA,022614.00,4522.91691,N,07155.42329,W,2,08,1.39,262.7,M,-31.5,M,,0000*77

$GNGSA,A,3,02,17,48,24,12,03,,,,,,,2.25,1.39,1.76*1C

$GNGSA,A,3,88,87,,,,,,,,,,,2.25,1.39,1.76*1D

$GPGSV,4,1,15,01,11,058,,02,20,244,40,03,35,058,09,06,57,245,*74

$GPGSV,4,2,15,11,02,077,,12,14,320,18,17,76,045,24,19,71,325,*7D

$GPGSV,4,3,15,22,19,045,15,23,03,100,,24,15,288,23,28,32,162,*7B

$GPGSV,4,4,15,46,14,245,35,48,11,249,40,51,27,225,*4C

$GLGSV,3,1,11,65,03,161,,70,07,017,,71,34,061,,72,30,123,*67

$GLGSV,3,2,11,76,02,192,,77,38,238,27,78,37,305,25,79,10,341,23*68

$GLGSV,3,3,11,86,29,067,08,87,63,345,29,88,29,285,22*5E

$GNGLL,4522.91691,N,07155.42329,W,022614.00,A,D*6C

$GNRMC,022615.00,A,4522.91689,N,07155.42273,W,0.119,,190318,,,D*78

$GNVTG,,T,,M,0.119,N,0.220,K,D*31

$GNGGA,022615.00,4522.91689,N,07155.42273,W,2,08,1.39,262.0,M,-31.5,M,,0000*76

$GNGSA,A,3,02,17,48,24,12,03,,,,,,,2.25,1.39,1.77*1D

$GNGSA,A,3,88,87,,,,,,,,,,,2.25,1.39,1.77*1C

$GPGSV,4,1,15,01,11,058,,02,20,244,40,03,35,058,09,06,57,245,*74

$GPGSV,4,2,15,11,02,077,,12,14,320,19,17,76,045,24,19,71,325,*7C

$GPGSV,4,3,15,22,19,045,17,23,03,100,,24,15,288,24,28,32,162,*7E

$GPGSV,4,4,15,46,14,245,35,48,11,249,40,51,27,225,*4C

$GLGSV,3,1,11,65,03,161,,70,07,017,,71,34,061,,72,30,123,*67

$GLGSV,3,2,11,76,02,192,,77,38,238,27,78,37,305,26,79,10,341,23*6B

$GLGSV,3,3,11,86,29,067,11,87,63,345,29,88,29,285,22*56

$GNGLL,4522.91689,N,07155.42273,W,022615.00,A,D*6A

$GNRMC,022616.00,A,4522.91691,N,07155.42267,W,0.138,,190318,,,D*74

$GNVTG,,T,,M,0.138,N,0.255,K,D*30

$GNGGA,022616.00,4522.91691,N,07155.42267,W,2,08,1.39,262.0,M,-31.5,M,,0000*79

$GNGSA,A,3,02,17,48,24,12,03,,,,,,,2.25,1.39,1.77*1D

$GNGSA,A,3,88,87,,,,,,,,,,,2.25,1.39,1.77*1C

$GPGSV,4,1,15,01,11,058,,02,20,244,40,03,35,058,09,06,57,245,*74

$GPGSV,4,2,15,11,02,077,,12,14,320,19,17,76,045,25,19,71,325,*7D

$GPGSV,4,3,15,22,19,045,17,23,03,100,,24,15,288,25,28,32,162,*7F

$GPGSV,4,4,15,46,14,245,34,48,11,249,40,51,27,225,*4D

$GLGSV,3,1,11,65,03,161,,70,07,017,,71,34,061,,72,30,123,*67

$GLGSV,3,2,11,76,02,192,,77,38,238,27,78,37,305,26,79,10,341,24*6C

$GLGSV,3,3,11,86,29,067,12,87,63,345,29,88,29,285,22*55

$GNGLL,4522.91691,N,07155.42267,W,022616.00,A,D*65

$GNRMC,022617.00,A,4522.91679,N,07155.42245,W,0.294,,190318,,,D*76

$GNVTG,,T,,M,0.294,N,0.544,K,D*32

$GNGGA,022617.00,4522.91679,N,07155.42245,W,2,08,1.39,262.0,M,-31.5,M,,0000*7E

$GNGSA,A,3,02,17,48,24,12,03,,,,,,,2.25,1.39,1.77*1D

$GNGSA,A,3,88,87,,,,,,,,,,,2.25,1.39,1.77*1C

$GPGSV,4,1,15,01,11,058,,02,20,244,40,03,35,058,09,06,57,245,*74

$GPGSV,4,2,15,11,02,077,,12,14,320,18,17,76,045,24,19,71,325,*7D

$GPGSV,4,3,15,22,19,045,17,23,03,100,,24,15,288,25,28,32,162,*7F

$GPGSV,4,4,15,46,14,245,34,48,11,249,40,51,27,225,*4D

$GLGSV,3,1,11,65,03,161,,70,07,017,,71,34,061,,72,30,123,*67

$GLGSV,3,2,11,76,02,192,,77,38,238,27,78,37,305,26,79,10,341,24*6C

$GLGSV,3,3,11,86,29,067,11,87,63,345,29,88,29,285,22*56

$GNGLL,4522.91679,N,07155.42245,W,022617.00,A,D*62

$GNRMC,022618.00,A,4522.91705,N,07155.42298,W,0.129,,190318,,,D*76

$GNVTG,,T,,M,0.129,N,0.238,K,D*3B

$GNGGA,022618.00,4522.91705,N,07155.42298,W,2,07,2.83,262.2,M,-31.5,M,,0000*74

$GNGSA,A,3,02,17,48,24,12,,,,,,,,4.47,2.83,3.46*1E

$GNGSA,A,3,88,87,,,,,,,,,,,4.47,2.83,3.46*1C

$GPGSV,4,1,15,01,11,058,,02,20,244,40,03,35,058,09,06,57,245,*74

$GPGSV,4,2,15,11,02,077,,12,14,320,17,17,76,045,24,19,71,325,*72

$GPGSV,4,3,15,22,19,045,18,23,03,100,,24,15,288,25,28,32,162,*70

$GPGSV,4,4,15,46,14,245,33,48,11,249,40,51,27,225,*4A

$GLGSV,3,1,11,65,03,161,,70,07,017,,71,34,061,,72,30,123,*67

$GLGSV,3,2,11,76,02,192,,77,38,238,27,78,37,305,26,79,10,341,23*6B

$GLGSV,3,3,11,86,29,067,10,87,63,345,29,88,29,285,22*57

$GNGLL,4522.91705,N,07155.42298,W,022618.00,A,D*67

$GNRMC,022619.00,A,4522.91711,N,07155.42288,W,0.113,,190318,,,D*7A

$GNVTG,,T,,M,0.113,N,0.208,K,D*31

$GNGGA,022619.00,4522.91711,N,07155.42288,W,2,07,2.83,262.0,M,-31.5,M,,0000*73

$GNGSA,A,3,02,17,48,24,12,,,,,,,,4.47,2.83,3.46*1E

$GNGSA,A,3,88,87,,,,,,,,,,,4.47,2.83,3.46*1C

$GPGSV,4,1,15,01,11,058,,02,20,244,41,03,35,058,10,06,57,245,*7D

$GPGSV,4,2,15,11,02,077,,12,14,320,19,17,76,045,25,19,71,325,*7D

$GPGSV,4,3,15,22,19,045,18,23,03,100,,24,15,288,25,28,32,162,21*73

$GPGSV,4,4,15,46,14,245,34,48,11,249,42,51,27,225,*4F

$GLGSV,3,1,11,65,03,161,,70,07,017,,71,34,061,,72,30,123,*67

$GLGSV,3,2,11,76,02,192,,77,38,238,27,78,37,305,25,79,10,341,23*68

$GLGSV,3,3,11,86,29,067,11,87,63,345,29,88,29,285,21*55

$GNGLL,4522.91711,N,07155.42288,W,022619.00,A,D*62

$GNRMC,022620.00,A,4522.91727,N,07155.42292,W,0.084,,190318,,,D*71

$GNVTG,,T,,M,0.084,N,0.156,K,D*36

$GNGGA,022620.00,4522.91727,N,07155.42292,W,2,07,2.83,261.9,M,-31.5,M,,0000*7D

$GNGSA,A,3,02,17,48,24,12,,,,,,,,4.47,2.83,3.46*1E

$GNGSA,A,3,88,87,,,,,,,,,,,4.47,2.83,3.46*1C

$GPGSV,4,1,15,01,11,058,,02,20,244,40,03,35,058,11,06,57,245,*7D

$GPGSV,4,2,15,11,02,077,,12,14,320,20,17,76,045,25,19,71,325,*77

$GPGSV,4,3,15,22,19,045,19,23,03,100,,24,15,288,25,28,32,162,19*79

$GPGSV,4,4,15,46,14,245,33,48,11,249,40,51,27,225,*4A

$GLGSV,3,1,11,65,03,161,,70,07,017,,71,34,061,,72,30,123,*67

$GLGSV,3,2,11,76,02,192,,77,38,238,26,78,37,305,26,79,10,341,22*6B

$GLGSV,3,3,11,86,29,067,09,87,63,345,28,88,29,285,21*5D

$GNGLL,4522.91727,N,07155.42292,W,022620.00,A,D*66

$GNRMC,022621.00,A,4522.91745,N,07155.42340,W,0.221,,190318,,,D*77

$GNVTG,,T,,M,0.221,N,0.409,K,D*34

$GNGGA,022621.00,4522.91745,N,07155.42340,W,2,08,1.39,262.3,M,-31.5,M,,0000*72

$GNGSA,A,3,02,17,48,24,12,03,,,,,,,2.25,1.39,1.77*1D

$GNGSA,A,3,88,87,,,,,,,,,,,2.25,1.39,1.77*1C

$GPGSV,4,1,15,01,11,058,,02,20,244,40,03,35,058,11,06,57,245,*7D

$GPGSV,4,2,15,11,02,077,,12,14,320,19,17,76,045,25,19,71,325,*7D

$GPGSV,4,3,15,22,19,045,19,23,03,100,,24,15,288,25,28,32,162,23*70

$GPGSV,4,4,15,46,14,245,32,48,11,249,40,51,27,225,*4B

$GLGSV,3,1,11,65,03,161,,70,07,017,,71,34,061,,72,30,123,*67

$GLGSV,3,2,11,76,02,192,,77,38,238,26,78,37,305,26,79,10,341,22*6B

$GLGSV,3,3,11,86,29,067,09,87,63,346,28,88,29,285,20*5F

$GNGLL,4522.91745,N,07155.42340,W,022621.00,A,D*6D

$GNRMC,022622.00,A,4522.91760,N,07155.42340,W,0.145,,190318,,,D*72

$GNVTG,,T,,M,0.145,N,0.269,K,D*35

$GNGGA,022622.00,4522.91760,N,07155.42340,W,2,08,1.39,262.0,M,-31.5,M,,0000*75

$GNGSA,A,3,02,17,48,24,12,03,,,,,,,2.25,1.39,1.77*1D

$GNGSA,A,3,88,87,,,,,,,,,,,2.25,1.39,1.77*1C

$GPGSV,4,1,15,01,11,058,,02,20,244,40,03,35,058,11,06,57,245,*7D

$GPGSV,4,2,15,11,02,077,,12,14,320,20,17,76,045,25,19,71,325,*77

$GPGSV,4,3,15,22,19,045,18,23,03,100,,24,15,288,25,28,32,162,20*72

$GPGSV,4,4,15,46,14,245,32,48,11,249,40,51,27,225,*4B

$GLGSV,3,1,11,65,03,161,,70,07,017,,71,34,061,,72,30,123,*67

$GLGSV,3,2,11,76,02,192,,77,38,238,26,78,37,305,26,79,10,341,22*6B

$GLGSV,3,3,11,86,29,067,11,87,63,346,28,88,30,285,20*5E

$GNGLL,4522.91760,N,07155.42340,W,022622.00,A,D*69

$GNRMC,022623.00,A,4522.91787,N,07155.42366,W,0.252,,190318,,,D*7B

$GNVTG,,T,,M,0.252,N,0.467,K,D*38

$GNGGA,022623.00,4522.91787,N,07155.42366,W,2,08,1.39,262.0,M,-31.5,M,,0000*79

$GNGSA,A,3,02,17,48,24,12,03,,,,,,,2.25,1.39,1.77*1D

$GNGSA,A,3,88,87,,,,,,,,,,,2.25,1.39,1.77*1C

$GPGSV,4,1,15,01,10,058,,02,20,244,40,03,35,058,11,06,57,245,*7C

$GPGSV,4,2,15,11,02,077,,12,14,320,20,17,76,045,24,19,71,325,*76

$GPGSV,4,3,15,22,19,045,18,23,03,100,,24,15,288,25,28,32,162,19*78

$GPGSV,4,4,15,46,14,245,32,48,11,249,40,51,27,225,*4B

$GLGSV,3,1,11,65,03,161,,70,07,017,,71,34,061,,72,30,123,*67

$GLGSV,3,2,11,76,02,192,,77,38,238,26,78,37,305,26,79,10,341,22*6B

$GLGSV,3,3,11,86,29,067,09,87,63,346,29,88,30,285,21*57

$GNGLL,4522.91787,N,07155.42366,W,022623.00,A,D*65

$GNRMC,022624.00,A,4522.91812,N,07155.42389,W,0.371,,190318,,,D*7E

$GNVTG,,T,,M,0.371,N,0.687,K,D*34

$GNGGA,022624.00,4522.91812,N,07155.42389,W,2,07,2.83,261.9,M,-31.5,M,,0000*7B

$GNGSA,A,3,02,17,48,24,12,,,,,,,,4.47,2.83,3.46*1E

$GNGSA,A,3,88,87,,,,,,,,,,,4.47,2.83,3.46*1C

$GPGSV,4,1,15,01,10,058,,02,20,244,41,03,35,058,11,06,57,245,*7D

$GPGSV,4,2,15,11,02,077,,12,14,320,20,17,76,045,23,19,71,325,21*72

$GPGSV,4,3,15,22,19,045,19,23,03,100,,24,15,288,25,28,32,162,*71

$GPGSV,4,4,15,46,14,245,32,48,11,249,42,51,27,225,*49

$GLGSV,3,1,11,65,03,161,,70,07,017,,71,34,061,,72,30,123,*67

$GLGSV,3,2,11,76,02,192,,77,38,238,26,78,37,305,26,79,10,341,22*6B

$GLGSV,3,3,11,86,29,067,09,87,63,346,29,88,30,285,21*57

$GNGLL,4522.91812,N,07155.42389,W,022624.00,A,D*60

$GNRMC,022625.00,A,4522.91836,N,07155.42402,W,0.467,,190318,,,D*7D

$GNVTG,,T,,M,0.467,N,0.865,K,D*36

$GNGGA,022625.00,4522.91836,N,07155.42402,W,2,07,2.83,261.7,M,-31.5,M,,0000*76

$GNGSA,A,3,02,17,48,24,12,,,,,,,,4.47,2.83,3.47*1F

$GNGSA,A,3,88,87,,,,,,,,,,,4.47,2.83,3.47*1D

$GPGSV,4,1,15,01,10,058,15,02,20,244,40,03,35,058,09,06,57,245,*71

$GPGSV,4,2,15,11,02,077,,12,14,320,19,17,76,045,24,19,71,325,21*7F

$GPGSV,4,3,15,22,19,045,19,23,03,100,,24,15,288,25,28,32,162,21*72

$GPGSV,4,4,15,46,14,245,31,48,11,249,40,51,27,225,*48

$GLGSV,3,1,11,65,03,161,,70,07,017,,71,34,061,,72,30,123,*67

$GLGSV,3,2,11,76,02,192,,77,38,238,26,78,37,305,26,79,10,341,22*6B

$GLGSV,3,3,11,86,29,067,11,87,63,346,29,88,30,285,21*5E

$GNGLL,4522.91836,N,07155.42402,W,022625.00,A,D*63

$GNRMC,022626.00,A,4522.91838,N,07155.42385,W,0.280,,190318,,,D*77

$GNVTG,,T,,M,0.280,N,0.518,K,D*3E

$GNGGA,022626.00,4522.91838,N,07155.42385,W,2,07,2.83,261.5,M,-31.5,M,,0000*71

$GNGSA,A,3,02,17,48,24,12,,,,,,,,4.47,2.83,3.47*1F

$GNGSA,A,3,88,87,,,,,,,,,,,4.47,2.83,3.47*1D

$GPGSV,4,1,15,01,10,058,12,02,20,244,40,03,35,058,07,06,57,245,20*7A

$GPGSV,4,2,15,11,02,077,,12,14,320,20,17,76,045,23,19,71,325,21*72

$GPGSV,4,3,15,22,19,045,19,23,03,100,,24,15,288,25,28,32,162,21*72

$GPGSV,4,4,15,46,14,245,30,48,11,249,40,51,27,225,*49

$GLGSV,3,1,11,65,03,161,,70,07,017,,71,34,061,,72,30,123,*67

$GLGSV,3,2,11,76,02,192,,77,38,238,26,78,37,305,26,79,10,341,22*6B

$GLGSV,3,3,11,86,29,067,07,87,63,346,29,88,30,285,21*59

$GNGLL,4522.91838,N,07155.42385,W,022626.00,A,D*66

$GNRMC,022627.00,A,4522.91834,N,07155.42341,W,0.214,,190318,,,D*7F

$GNVTG,,T,,M,0.214,N,0.397,K,D*32

$GNGGA,022627.00,4522.91834,N,07155.42341,W,2,09,1.53,260.9,M,-31.5,M,,0000*79

$GNGSA,A,3,19,02,17,48,24,12,28,,,,,,2.49,1.53,1.97*14

$GNGSA,A,3,88,87,,,,,,,,,,,2.49,1.53,1.97*14

$GPGSV,4,1,15,01,10,058,12,02,20,244,40,03,35,058,07,06,57,246,*7B

$GPGSV,4,2,15,11,02,077,,12,14,320,20,17,76,045,23,19,71,325,22*71

$GPGSV,4,3,15,22,19,045,18,23,03,100,,24,15,288,25,28,32,162,21*73

$GPGSV,4,4,15,46,14,245,30,48,11,249,40,51,27,225,*49

$GLGSV,3,1,11,65,03,161,,70,07,017,,71,34,061,,72,30,123,*67

$GLGSV,3,2,11,76,02,192,,77,38,238,26,78,37,305,26,79,10,341,22*6B

$GLGSV,3,3,11,86,29,067,11,87,63,346,29,88,30,285,21*5E

$GNGLL,4522.91834,N,07155.42341,W,022627.00,A,D*63

$GNRMC,022628.00,A,4522.91844,N,07155.42327,W,0.200,,190318,,,D*72

$GNVTG,,T,,M,0.200,N,0.370,K,D*3E

$GNGGA,022628.00,4522.91844,N,07155.42327,W,2,09,1.53,260.6,M,-31.5,M,,0000*7E

$GNGSA,A,3,19,02,17,48,24,12,28,,,,,,2.49,1.53,1.97*14

$GNGSA,A,3,88,87,,,,,,,,,,,2.49,1.53,1.97*14

$GPGSV,4,1,15,01,10,058,12,02,20,244,40,03,35,058,07,06,57,246,*7B

$GPGSV,4,2,15,11,02,077,,12,14,320,20,17,76,045,23,19,71,325,22*71

$GPGSV,4,3,15,22,19,045,18,23,03,100,,24,15,288,25,28,32,162,20*72

$GPGSV,4,4,15,46,14,245,30,48,11,249,40,51,27,225,*49

$GLGSV,3,1,11,65,03,161,,70,07,017,,71,34,061,,72,30,123,*67

$GLGSV,3,2,11,76,02,192,,77,38,238,26,78,37,305,26,79,10,341,22*6B

$GLGSV,3,3,11,86,29,067,10,87,63,346,29,88,30,285,21*5F

$GNGLL,4522.91844,N,07155.42327,W,022628.00,A,D*6B

$GNRMC,022629.00,A,4522.91846,N,07155.42294,W,0.227,,190318,,,D*7D

$GNVTG,,T,,M,0.227,N,0.420,K,D*39

$GNGGA,022629.00,4522.91846,N,07155.42294,W,2,10,0.90,260.1,M,-31.5,M,,0000*75

$GNGSA,A,3,19,02,17,48,24,12,28,01,,,,,1.41,0.90,1.09*17

$GNGSA,A,3,88,87,,,,,,,,,,,1.41,0.90,1.09*16

$GPGSV,4,1,15,01,10,058,12,02,20,244,40,03,35,058,07,06,57,246,*7B

$GPGSV,4,2,15,11,02,077,,12,14,320,21,17,76,045,22,19,71,325,23*70

$GPGSV,4,3,15,22,19,045,18,23,03,100,,24,15,288,25,28,32,162,20*72

$GPGSV,4,4,15,46,14,245,29,48,11,249,40,51,27,225,*41

$GLGSV,3,1,11,65,03,161,,70,07,017,,71,34,061,,72,30,123,*67

$GLGSV,3,2,11,76,02,192,,77,38,238,26,78,37,305,26,79,10,341,22*6B

$GLGSV,3,3,11,86,29,067,12,87,63,346,29,88,30,285,21*5D

$GNGLL,4522.91846,N,07155.42294,W,022629.00,A,D*61

$GNRMC,022630.00,A,4522.91838,N,07155.42270,W,0.077,,190318,,,D*71

$GNVTG,,T,,M,0.077,N,0.143,K,D*3E

$GNGGA,022630.00,4522.91838,N,07155.42270,W,2,10,0.90,260.0,M,-31.5,M,,0000*7F

$GNGSA,A,3,19,02,17,48,24,12,28,01,,,,,1.41,0.90,1.09*17

$GNGSA,A,3,88,87,,,,,,,,,,,1.41,0.90,1.09*16

$GPGSV,4,1,15,01,10,058,12,02,20,244,39,03,35,058,,06,57,246,*72

$GPGSV,4,2,15,11,02,077,,12,14,320,22,17,76,045,22,19,71,325,24*74

$GPGSV,4,3,15,22,19,045,15,23,03,100,,24,15,288,26,28,32,162,21*7D

$GPGSV,4,4,15,46,14,245,29,48,11,249,40,51,27,225,*41

$GLGSV,3,1,11,65,03,161,,70,07,017,,71,34,061,,72,30,123,*67

$GLGSV,3,2,11,76,02,192,,77,38,238,26,78,37,305,26,79,10,341,22*6B

$GLGSV,3,3,11,86,29,067,08,87,63,346,29,88,30,285,21*56

$GNGLL,4522.91838,N,07155.42270,W,022630.00,A,D*6A

$GNRMC,022631.00,A,4522.91831,N,07155.42244,W,0.088,,190318,,,D*7E

$GNVTG,,T,,M,0.088,N,0.163,K,D*3C

$GNGGA,022631.00,4522.91831,N,07155.42244,W,2,10,0.90,259.7,M,-31.5,M,,0000*7D

$GNGSA,A,3,19,02,17,48,24,12,28,01,,,,,1.41,0.90,1.09*17

$GNGSA,A,3,88,87,,,,,,,,,,,1.41,0.90,1.09*16

$GPGSV,4,1,15,01,10,058,10,02,20,244,39,03,35,058,,06,57,246,*70

$GPGSV,4,2,15,11,02,077,,12,14,320,21,17,76,045,22,19,71,325,24*77

$GPGSV,4,3,15,22,19,045,13,23,03,100,,24,15,288,26,28,32,162,20*7A

$GPGSV,4,4,15,46,14,245,28,48,11,249,40,51,27,225,*40

$GLGSV,3,1,11,65,03,161,,70,07,017,,71,34,061,,72,30,123,*67

$GLGSV,3,2,11,76,02,192,,77,38,238,26,78,37,305,26,79,10,341,22*6B

$GLGSV,3,3,11,86,29,067,08,87,63,346,29,88,30,285,21*56

$GNGLL,4522.91831,N,07155.42244,W,022631.00,A,D*65

$GNRMC,022632.00,A,4522.91819,N,07155.42224,W,0.151,,190318,,,D*74

$GNVTG,,T,,M,0.151,N,0.280,K,D*37

$GNGGA,022632.00,4522.91819,N,07155.42224,W,2,10,0.90,259.6,M,-31.5,M,,0000*73

$GNGSA,A,3,19,02,17,48,24,12,28,01,,,,,1.41,0.90,1.09*17

$GNGSA,A,3,88,87,,,,,,,,,,,1.41,0.90,1.09*16

$GPGSV,4,1,15,01,10,058,12,02,20,244,39,03,35,058,,06,57,246,22*72

$GPGSV,4,2,15,11,01,077,,12,14,320,22,17,76,045,22,19,71,325,25*76

$GPGSV,4,3,15,22,19,045,14,23,03,100,,24,15,288,26,28,32,162,20*7D

$GPGSV,4,4,15,46,14,245,28,48,11,249,40,51,27,225,*40

$GLGSV,3,1,11,65,03,161,,70,07,017,,71,34,061,,72,30,123,*67

$GLGSV,3,2,11,76,02,192,,77,38,238,26,78,37,305,25,79,10,341,21*6B

$GLGSV,3,3,11,86,29,067,08,87,63,346,29,88,30,285,21*56

$GNGLL,4522.91819,N,07155.42224,W,022632.00,A,D*6A

$GNRMC,022633.00,A,4522.91805,N,07155.42242,W,0.090,,190318,,,D*74

$GNVTG,,T,,M,0.090,N,0.168,K,D*3E

$GNGGA,022633.00,4522.91805,N,07155.42242,W,2,10,0.90,260.2,M,-31.5,M,,0000*71

$GNGSA,A,3,19,02,17,48,24,12,28,01,,,,,1.41,0.90,1.09*17

$GNGSA,A,3,88,87,,,,,,,,,,,1.41,0.90,1.09*16

$GPGSV,4,1,15,01,10,058,09,02,20,244,39,03,35,058,,06,57,246,20*7A

$GPGSV,4,2,15,11,01,077,,12,15,319,22,17,76,045,22,19,71,325,25*7D

$GPGSV,4,3,15,22,19,045,15,23,03,100,,24,15,288,25,28,32,162,21*7E

$GPGSV,4,4,15,46,14,245,27,48,11,249,40,51,27,225,*4F

$GLGSV,3,1,11,65,03,161,,70,07,017,,71,34,061,,72,30,123,*67

$GLGSV,3,2,11,76,02,192,,77,38,238,26,78,37,305,25,79,10,341,21*6B

$GLGSV,3,3,11,86,29,067,10,87,63,346,29,88,30,285,21*5F

$GNGLL,4522.91805,N,07155.42242,W,022633.00,A,D*66

$GNRMC,022634.00,A,4522.91794,N,07155.42232,W,0.050,,190318,,,D*7F

$GNVTG,,T,,M,0.050,N,0.092,K,D*36

$GNGGA,022634.00,4522.91794,N,07155.42232,W,2,10,0.90,260.4,M,-31.5,M,,0000*70

$GNGSA,A,3,19,02,17,48,24,12,28,01,,,,,1.41,0.90,1.09*17

$GNGSA,A,3,88,87,,,,,,,,,,,1.41,0.90,1.09*16

$GPGSV,4,1,15,01,10,058,08,02,20,244,39,03,35,058,,06,57,246,20*7B

$GPGSV,4,2,15,11,01,077,,12,15,319,22,17,76,045,23,19,71,325,25*7C

$GPGSV,4,3,15,22,19,045,15,23,03,100,,24,15,288,25,28,32,162,21*7E

$GPGSV,4,4,15,46,14,245,27,48,11,249,40,51,27,225,*4F

$GLGSV,3,1,11,65,03,161,,70,07,017,,71,34,061,,72,30,123,*67

$GLGSV,3,2,11,76,02,192,,77,38,238,26,78,37,305,25,79,10,341,21*6B

$GLGSV,3,3,11,86,29,067,10,87,63,346,29,88,30,285,21*5F

$GNGLL,4522.91794,N,07155.42232,W,022634.00,A,D*61

$GNRMC,022635.00,A,4522.91784,N,07155.42228,W,0.154,,190318,,,D*71

$GNVTG,,T,,M,0.154,N,0.284,K,D*36

$GNGGA,022635.00,4522.91784,N,07155.42228,W,2,11,0.90,260.6,M,-31.5,M,,0000*78

$GNGSA,A,3,19,02,17,48,24,12,28,01,06,,,,1.41,0.90,1.09*11

$GNGSA,A,3,88,87,,,,,,,,,,,1.41,0.90,1.09*16

$GPGSV,4,1,15,01,10,058,11,02,20,244,40,03,35,058,05,06,57,246,20*78

$GPGSV,4,2,15,11,01,077,,12,15,319,23,17,76,045,23,19,71,325,25*7D

$GPGSV,4,3,15,22,19,045,13,23,03,100,,24,15,288,25,28,32,162,22*7B

$GPGSV,4,4,15,46,14,245,27,48,11,249,42,51,27,225,*4D

$GLGSV,3,1,11,65,03,161,,70,07,017,,71,34,061,,72,30,123,*67

$GLGSV,3,2,11,76,02,192,,77,38,238,25,78,37,305,26,79,10,341,22*68

$GLGSV,3,3,11,86,29,067,08,87,63,346,29,88,30,285,22*55

$GNGLL,4522.91784,N,07155.42228,W,022635.00,A,D*6A

$GNRMC,022636.00,A,4522.91802,N,07155.42297,W,0.328,,190318,,,D*7E

$GNVTG,,T,,M,0.328,N,0.607,K,D*30

$GNGGA,022636.00,4522.91802,N,07155.42297,W,2,11,0.89,261.2,M,-31.5,M,,0000*73

$GNGSA,A,3,19,02,17,48,24,12,28,01,06,,,,1.35,0.89,1.02*11

$GNGSA,A,3,88,87,,,,,,,,,,,1.35,0.89,1.02*16

$GPGSV,4,1,15,01,10,058,14,02,20,244,40,03,35,058,08,06,57,246,20*70

$GPGSV,4,2,15,11,01,077,,12,15,319,23,17,76,045,25,19,71,325,25*7B

$GPGSV,4,3,15,22,19,045,14,23,03,100,,24,15,288,26,28,32,162,23*7E

$GPGSV,4,4,15,46,14,245,27,48,11,249,42,51,27,225,*4D

$GLGSV,3,1,11,65,03,161,,70,07,017,,71,34,061,,72,30,123,*67

$GLGSV,3,2,11,76,02,192,,77,38,238,25,78,37,305,26,79,10,341,22*68

$GLGSV,3,3,11,86,29,067,08,87,63,346,29,88,30,285,22*55

$GNGLL,4522.91802,N,07155.42297,W,022636.00,A,D*6C

$GNRMC,022637.00,A,4522.91789,N,07155.42299,W,0.109,,190318,,,D*7C

$GNVTG,,T,,M,0.109,N,0.202,K,D*30

$GNGGA,022637.00,4522.91789,N,07155.42299,W,2,11,0.89,261.5,M,-31.5,M,,0000*77

$GNGSA,A,3,19,02,17,48,24,12,28,01,06,,,,1.35,0.89,1.02*11

$GNGSA,A,3,88,87,,,,,,,,,,,1.35,0.89,1.02*16

$GPGSV,4,1,15,01,10,058,09,02,20,244,40,03,35,058,14,06,57,246,20*71

$GPGSV,4,2,15,11,01,077,,12,15,319,23,17,76,045,24,19,71,325,24*7B

$GPGSV,4,3,15,22,19,045,13,23,03,100,,24,15,288,26,28,32,162,22*78

$GPGSV,4,4,15,46,14,245,41,48,11,249,41,51,27,225,*4E

$GLGSV,3,1,11,65,03,161,,70,07,017,,71,34,061,,72,30,123,*67

$GLGSV,3,2,11,76,02,192,,77,38,238,25,78,37,305,26,79,10,341,22*68

$GLGSV,3,3,11,86,29,067,08,87,63,346,29,88,30,285,21*56

$GNGLL,4522.91789,N,07155.42299,W,022637.00,A,D*6F

$GNRMC,022638.00,A,4522.91775,N,07155.42307,W,0.115,,190318,,,D*7B

$GNVTG,,T,,M,0.115,N,0.213,K,D*3D

$GNGGA,022638.00,4522.91775,N,07155.42307,W,2,11,0.89,261.9,M,-31.5,M,,0000*71

$GNGSA,A,3,19,02,17,48,24,12,28,01,06,,,,1.35,0.89,1.02*11

$GNGSA,A,3,88,87,,,,,,,,,,,1.35,0.89,1.02*16

$GPGSV,4,1,15,01,10,058,13,02,20,244,40,03,35,058,16,06,57,246,21*79

$GPGSV,4,2,15,11,01,077,,12,15,319,24,17,76,047,25,19,71,325,23*78

$GPGSV,4,3,15,22,19,045,13,23,03,100,,24,15,288,26,28,32,162,23*79

$GPGSV,4,4,15,46,14,245,41,48,11,249,41,51,27,225,*4E

$GLGSV,3,1,11,65,03,161,,70,07,017,,71,34,061,,72,30,123,*67

$GLGSV,3,2,11,76,02,192,,77,38,238,25,78,37,305,26,79,10,341,22*68

$GLGSV,3,3,11,86,29,067,08,87,63,346,28,88,30,285,21*57

$GNGLL,4522.91775,N,07155.42307,W,022638.00,A,D*65

$GNRMC,022639.00,A,4522.91760,N,07155.42485,W,0.125,,190318,,,D*70

$GNVTG,,T,,M,0.125,N,0.232,K,D*3D

$GNGGA,022639.00,4522.91760,N,07155.42485,W,2,12,0.84,264.8,M,-31.5,M,,0000*73

$GNGSA,A,3,19,02,17,48,24,12,03,28,01,06,,,1.32,0.84,1.02*18

$GNGSA,A,3,88,87,,,,,,,,,,,1.32,0.84,1.02*1C

$GPGSV,4,1,15,01,10,058,12,02,20,244,40,03,35,058,17,06,57,246,21*79

$GPGSV,4,2,15,11,01,077,,12,15,319,24,17,76,047,25,19,71,325,23*78

$GPGSV,4,3,15,22,19,045,13,23,03,100,,24,15,288,25,28,32,162,23*7A

$GPGSV,4,4,15,46,14,245,41,48,11,249,41,51,27,225,*4E

$GLGSV,3,1,11,65,03,161,,70,07,017,,71,34,061,,72,30,123,*67

$GLGSV,3,2,11,76,02,192,,77,38,238,25,78,37,305,26,79,10,341,22*68

$GLGSV,3,3,11,86,29,067,09,87,63,346,28,88,30,285,21*56

$GNGLL,4522.91760,N,07155.42485,W,022639.00,A,D*6D

$GNRMC,022640.00,A,4522.91753,N,07155.42616,W,0.275,,190318,,,D*70

$GNVTG,,T,,M,0.275,N,0.510,K,D*3C

$GNGGA,022640.00,4522.91753,N,07155.42616,W,2,12,0.84,266.8,M,-31.5,M,,0000*77

$GNGSA,A,3,19,02,17,48,24,12,03,28,01,06,,,1.32,0.84,1.02*18

$GNGSA,A,3,88,87,,,,,,,,,,,1.32,0.84,1.02*1C

$GPGSV,4,1,15,01,10,058,09,02,20,244,40,03,35,058,17,06,57,246,22*70

$GPGSV,4,2,15,11,01,077,,12,15,319,25,17,76,047,24,19,72,326,23*78

$GPGSV,4,3,15,22,19,045,,23,03,100,,24,15,288,26,28,32,162,23*7B

$GPGSV,4,4,15,46,14,245,41,48,11,249,41,51,27,225,*4E

$GLGSV,3,1,11,65,03,161,,70,07,017,,71,34,061,,72,30,123,*67

$GLGSV,3,2,11,76,02,192,,77,38,238,25,78,37,305,26,79,10,341,23*69

$GLGSV,3,3,11,86,29,067,09,87,63,346,28,88,30,285,22*55

$GNGLL,4522.91753,N,07155.42616,W,022640.00,A,D*6B

$GNRMC,022641.00,A,4522.91741,N,07155.42619,W,0.150,,190318,,,D*79

$GNVTG,,T,,M,0.150,N,0.278,K,D*31

$GNGGA,022641.00,4522.91741,N,07155.42619,W,2,12,0.89,267.1,M,-31.5,M,,0000*7F

$GNGSA,A,3,19,02,17,48,24,12,03,28,01,06,,,1.35,0.89,1.02*12

$GNGSA,A,3,88,87,,,,,,,,,,,1.35,0.89,1.02*16

$GPGSV,4,1,15,01,10,058,09,02,20,244,40,03,35,058,16,06,57,246,23*70

$GPGSV,4,2,15,11,01,077,,12,15,319,25,17,76,047,23,19,72,326,23*7F

$GPGSV,4,3,15,22,19,045,,23,03,100,,24,15,288,26,28,32,162,23*7B

$GPGSV,4,4,15,46,14,245,41,48,11,249,41,51,27,225,*4E

$GLGSV,3,1,11,65,03,161,,70,07,017,,71,34,061,,72,30,123,*67

$GLGSV,3,2,11,76,02,192,,77,38,238,25,78,37,305,26,79,10,341,23*69

$GLGSV,3,3,11,86,29,067,07,87,63,346,28,88,30,285,22*5B

$GNGLL,4522.91741,N,07155.42619,W,022641.00,A,D*66

$GNRMC,022642.00,A,4522.91732,N,07155.42619,W,0.172,,190318,,,D*7E

$GNVTG,,T,,M,0.172,N,0.318,K,D*36

$GNGGA,022642.00,4522.91732,N,07155.42619,W,2,12,1.35,267.3,M,-31.5,M,,0000*7C

$GNGSA,A,3,19,02,17,48,24,12,03,28,01,06,,,2.10,1.35,1.61*15

$GNGSA,A,3,88,87,,,,,,,,,,,2.10,1.35,1.61*11

$GPGSV,4,1,15,01,10,058,12,02,20,244,40,03,35,058,16,06,57,246,24*7D

$GPGSV,4,2,15,11,01,077,,12,15,319,25,17,76,047,22,19,72,326,23*7E

$GPGSV,4,3,15,22,19,045,,23,03,100,,24,15,288,25,28,32,162,23*78

$GPGSV,4,4,15,46,14,245,41,48,11,249,41,51,27,225,*4E

$GLGSV,3,1,11,65,03,161,,70,07,017,,71,34,061,,72,30,123,*67

$GLGSV,3,2,11,76,02,192,,77,38,238,25,78,37,305,26,79,10,341,23*69

$GLGSV,3,3,11,86,29,067,09,87,63,346,28,88,30,285,21*56

$GNGLL,4522.91732,N,07155.42619,W,022642.00,A,D*61

$GNRMC,022643.00,A,4522.91727,N,07155.42733,W,0.326,,190318,,,D*71

$GNVTG,,T,,M,0.326,N,0.604,K,D*3D

$GNGGA,022643.00,4522.91727,N,07155.42733,W,2,12,0.84,269.1,M,-31.5,M,,0000*77

$GNGSA,A,3,19,02,17,48,24,12,03,28,01,06,,,1.32,0.84,1.02*18

$GNGSA,A,3,88,87,,,,,,,,,,,1.32,0.84,1.02*1C

$GPGSV,4,1,15,01,10,058,10,02,20,244,40,03,35,058,15,06,57,246,24*7C

$GPGSV,4,2,15,11,01,077,,12,15,319,25,17,76,047,22,19,72,326,22*7F

$GPGSV,4,3,15,22,19,045,,23,03,100,,24,15,288,25,28,32,162,24*7F

$GPGSV,4,4,15,46,14,245,41,48,11,249,41,51,27,225,*4E

$GLGSV,3,1,11,65,03,161,,70,07,017,,71,34,061,,72,30,123,*67

$GLGSV,3,2,11,76,02,192,,77,38,238,25,78,37,305,26,79,10,341,24*6E

$GLGSV,3,3,11,86,29,067,11,87,63,346,28,88,30,285,20*5E

$GNGLL,4522.91727,N,07155.42733,W,022643.00,A,D*6D

$GNRMC,022644.00,A,4522.91720,N,07155.42796,W,0.302,,190318,,,D*78

$GNVTG,,T,,M,0.302,N,0.560,K,D*3A

$GNGGA,022644.00,4522.91720,N,07155.42796,W,2,12,0.84,270.1,M,-31.5,M,,0000*70

$GNGSA,A,3,19,02,17,48,24,12,03,28,01,06,,,1.32,0.84,1.02*18

$GNGSA,A,3,88,87,,,,,,,,,,,1.32,0.84,1.02*1C

$GPGSV,4,1,15,01,10,058,11,02,20,244,39,03,35,058,13,06,57,246,24*75

$GPGSV,4,2,15,11,01,077,,12,15,319,24,17,76,047,22,19,72,326,21*7D

$GPGSV,4,3,15,22,19,045,,23,03,099,,24,15,288,24,28,32,162,23*78

$GPGSV,4,4,15,46,14,245,40,48,11,249,40,51,27,225,*4E

$GLGSV,3,1,11,65,03,161,,70,07,017,,71,34,061,,72,30,123,*67

$GLGSV,3,2,11,76,02,192,,77,38,238,24,78,37,305,26,79,10,341,24*6F

$GLGSV,3,3,11,86,29,067,08,87,63,346,29,88,30,285,20*57

$GNGLL,4522.91720,N,07155.42796,W,022644.00,A,D*62

$GNRMC,022645.00,A,4522.91713,N,07155.42800,W,0.218,,190318,,,D*73

$GNVTG,,T,,M,0.218,N,0.405,K,D*32

$GNGGA,022645.00,4522.91713,N,07155.42800,W,2,12,0.84,270.4,M,-31.5,M,,0000*74

$GNGSA,A,3,19,02,17,48,24,12,03,28,01,06,,,1.32,0.84,1.02*18

$GNGSA,A,3,88,87,,,,,,,,,,,1.32,0.84,1.02*1C

$GPGSV,4,1,15,01,10,058,11,02,20,244,37,03,35,058,10,06,57,246,23*7F

$GPGSV,4,2,15,11,01,077,,12,15,319,24,17,76,047,21,19,72,326,20*7F

$GPGSV,4,3,15,22,19,045,,23,03,099,,24,15,288,23,28,32,162,23*7F

$GPGSV,4,4,15,46,14,245,39,48,11,249,39,51,27,225,*4E

$GLGSV,3,1,11,65,03,161,,70,07,017,,71,34,061,,72,30,123,*67

$GLGSV,3,2,11,76,02,192,,77,38,238,25,78,37,305,27,79,10,341,24*6F

$GLGSV,3,3,11,86,29,067,11,87,63,346,28,88,30,285,20*5E

$GNGLL,4522.91713,N,07155.42800,W,022645.00,A,D*63

$GNRMC,022646.00,A,4522.91709,N,07155.42793,W,0.218,,190318,,,D*7E

$GNVTG,,T,,M,0.218,N,0.404,K,D*33

$GNGGA,022646.00,4522.91709,N,07155.42793,W,2,11,0.89,270.6,M,-31.5,M,,0000*75

$GNGSA,A,3,19,02,17,48,24,12,28,01,06,,,,1.35,0.89,1.02*11

$GNGSA,A,3,88,87,,,,,,,,,,,1.35,0.89,1.02*16

$GPGSV,4,1,15,01,10,058,11,02,20,244,37,03,35,058,08,06,57,246,22*77

$GPGSV,4,2,15,11,01,077,,12,15,319,23,17,76,047,20,19,72,326,19*73

$GPGSV,4,3,15,22,19,045,,23,03,099,,24,15,288,23,28,32,162,22*7E

$GPGSV,4,4,15,46,14,245,39,48,11,249,39,51,27,225,*4E

$GLGSV,3,1,11,65,03,161,,70,07,017,,71,34,061,,72,30,123,*67

$GLGSV,3,2,11,76,02,192,,77,38,238,24,78,37,305,26,79,10,341,24*6F

$GLGSV,3,3,11,86,29,067,06,87,63,346,28,88,30,285,20*58

$GNGLL,4522.91709,N,07155.42793,W,022646.00,A,D*6E

$GNRMC,022647.00,A,4522.91700,N,07155.42785,W,0.192,,190318,,,D*70

$GNVTG,,T,,M,0.192,N,0.355,K,D*31

$GNGGA,022647.00,4522.91700,N,07155.42785,W,2,11,0.89,270.7,M,-31.5,M,,0000*7B

$GNGSA,A,3,19,02,17,48,24,12,28,01,06,,,,1.35,0.89,1.02*11

$GNGSA,A,3,88,87,,,,,,,,,,,1.35,0.89,1.02*16

$GPGSV,4,1,15,01,10,058,12,02,20,244,38,03,35,058,08,06,57,246,23*7A

$GPGSV,4,2,15,11,01,077,,12,15,319,23,17,76,047,20,19,72,326,18*72

$GPGSV,4,3,15,22,19,045,,23,03,099,,24,15,288,23,28,32,162,22*7E

$GPGSV,4,4,15,46,14,245,39,48,11,249,40,51,27,225,*40

$GLGSV,3,1,11,65,03,161,,70,07,017,,71,34,061,,72,30,123,*67

$GLGSV,3,2,11,76,02,192,,77,38,238,24,78,37,305,27,79,10,341,23*69

$GLGSV,3,3,11,86,29,067,12,87,63,346,27,88,30,285,20*52

$GNGLL,4522.91700,N,07155.42785,W,022647.00,A,D*61

$GNRMC,022648.00,A,4522.91692,N,07155.42736,W,0.197,,190318,,,D*78

$GNVTG,,T,,M,0.197,N,0.365,K,D*37

$GNGGA,022648.00,4522.91692,N,07155.42736,W,2,11,0.89,270.2,M,-31.5,M,,0000*73

$GNGSA,A,3,19,02,17,48,24,12,28,01,06,,,,1.35,0.89,1.02*11

$GNGSA,A,3,88,87,,,,,,,,,,,1.35,0.89,1.02*16

$GPGSV,4,1,15,01,10,058,12,02,20,244,38,03,35,058,08,06,57,246,23*7A

$GPGSV,4,2,15,11,01,077,,12,15,319,23,17,76,047,20,19,72,326,16*7C

$GPGSV,4,3,15,22,19,045,,23,03,099,,24,15,288,23,28,32,162,22*7E

$GPGSV,4,4,15,46,14,245,39,48,11,249,40,51,27,225,*40

$GLGSV,3,1,11,65,03,161,,70,07,017,,71,34,061,,72,30,123,*67

$GLGSV,3,2,11,76,02,192,,77,38,238,25,78,37,305,27,79,10,341,24*6F

$GLGSV,3,3,11,86,29,067,10,87,63,346,28,88,30,285,20*5F

$GNGLL,4522.91692,N,07155.42736,W,022648.00,A,D*6C

$GNRMC,022649.00,A,4522.91673,N,07155.42710,W,0.264,,190318,,,D*7D

$GNVTG,,T,,M,0.264,N,0.488,K,D*3C

$GNGGA,022649.00,4522.91673,N,07155.42710,W,2,11,0.89,270.3,M,-31.5,M,,0000*78

$GNGSA,A,3,19,02,17,48,24,12,28,01,06,,,,1.35,0.89,1.02*11

$GNGSA,A,3,88,87,,,,,,,,,,,1.35,0.89,1.02*16

$GPGSV,4,1,15,01,10,058,12,02,20,244,38,03,35,058,08,06,57,246,23*7A

$GPGSV,4,2,15,11,01,077,,12,15,319,23,17,76,047,21,19,72,326,13*78

$GPGSV,4,3,15,22,19,045,,23,03,099,,24,15,288,23,28,31,162,22*7D

$GPGSV,4,4,15,46,14,245,39,48,11,249,40,51,27,225,*40

$GLGSV,3,1,11,65,03,161,,70,07,017,,71,34,061,,72,30,123,*67

$GLGSV,3,2,11,76,02,192,,77,38,238,24,78,37,305,27,79,10,341,24*6E

$GLGSV,3,3,11,86,29,067,11,87,63,346,28,88,30,285,20*5E

$GNGLL,4522.91673,N,07155.42710,W,022649.00,A,D*66

$GNRMC,022650.00,A,4522.91658,N,07155.42702,W,0.265,,190318,,,D*7E

$GNVTG,,T,,M,0.265,N,0.491,K,D*35

$GNGGA,022650.00,4522.91658,N,07155.42702,W,2,10,0.89,270.6,M,-31.5,M,,0000*7E

$GNGSA,A,3,02,17,48,24,12,28,01,06,,,,,1.44,0.89,1.13*1F

$GNGSA,A,3,88,87,,,,,,,,,,,1.44,0.89,1.13*10

$GPGSV,4,1,15,01,10,058,10,02,20,244,38,03,35,058,09,06,57,246,23*79

$GPGSV,4,2,15,11,01,077,,12,15,319,23,17,76,047,21,19,72,326,*7A

$GPGSV,4,3,15,22,19,045,,23,03,099,,24,15,288,23,28,31,162,23*7C

$GPGSV,4,4,15,46,14,245,39,48,11,249,40,51,27,225,*40

$GLGSV,3,1,11,65,03,161,,70,07,017,,71,34,061,,72,30,123,*67

$GLGSV,3,2,11,76,02,192,,77,38,238,25,78,37,305,27,79,10,341,24*6F

$GLGSV,3,3,11,86,29,067,10,87,63,346,28,88,30,285,19*55

$GNGLL,4522.91658,N,07155.42702,W,022650.00,A,D*64

$GNRMC,022651.00,A,4522.91654,N,07155.42717,W,0.122,,190318,,,D*77

$GNVTG,,T,,M,0.122,N,0.225,K,D*3C

$GNGGA,022651.00,4522.91654,N,07155.42717,W,2,11,0.85,271.1,M,-31.5,M,,0000*7C

$GNGSA,A,3,02,17,48,24,12,03,28,01,06,,,,1.41,0.85,1.13*15

$GNGSA,A,3,88,87,,,,,,,,,,,1.41,0.85,1.13*19

$GPGSV,4,1,15,01,10,058,10,02,20,244,40,03,35,058,09,06,57,246,24*71

$GPGSV,4,2,15,11,01,077,,12,15,319,24,17,76,047,21,19,72,326,*7D

$GPGSV,4,3,15,22,19,045,,23,03,099,,24,15,288,23,28,31,162,22*7D

$GPGSV,4,4,15,46,14,245,40,48,11,249,41,51,27,225,*4F

$GLGSV,3,1,11,65,03,161,,70,07,017,,71,34,061,,72,30,123,*67

$GLGSV,3,2,11,76,02,192,,77,38,238,25,78,37,305,27,79,10,341,24*6F

$GLGSV,3,3,11,86,29,067,10,87,63,346,28,88,30,285,18*54

$GNGLL,4522.91654,N,07155.42717,W,022651.00,A,D*6D

$GNRMC,022652.00,A,4522.91670,N,07155.42736,W,0.324,,190318,,,D*75

$GNVTG,,T,,M,0.324,N,0.601,K,D*3A

$GNGGA,022652.00,4522.91670,N,07155.42736,W,2,11,0.85,271.3,M,-31.5,M,,0000*78

$GNGSA,A,3,02,17,48,24,12,03,28,01,06,,,,1.41,0.85,1.13*15

$GNGSA,A,3,88,87,,,,,,,,,,,1.41,0.85,1.13*19

$GPGSV,4,1,15,01,10,058,10,02,20,244,40,03,35,058,09,06,57,246,25*70

$GPGSV,4,2,15,11,01,077,,12,15,319,25,17,76,047,22,19,72,326,*7F

$GPGSV,4,3,15,22,19,045,,23,03,099,,24,15,288,23,28,31,162,23*7C

$GPGSV,4,4,15,46,14,245,41,48,11,249,41,51,27,225,*4E

$GLGSV,3,1,11,65,03,161,,70,07,017,,71,34,061,,72,30,123,*67

$GLGSV,3,2,11,76,02,192,,77,38,238,25,78,37,305,27,79,10,341,25*6E

$GLGSV,3,3,11,86,29,067,10,87,63,346,28,88,30,285,17*5B

$GNGLL,4522.91670,N,07155.42736,W,022652.00,A,D*6B

$GNRMC,022653.00,A,4522.91666,N,07155.42723,W,0.193,,190318,,,D*79

$GNVTG,,T,,M,0.193,N,0.357,K,D*32

$GNGGA,022653.00,4522.91666,N,07155.42723,W,2,11,0.85,271.4,M,-31.5,M,,0000*7D

$GNGSA,A,3,02,17,48,24,12,03,28,01,06,,,,1.41,0.85,1.13*15

$GNGSA,A,3,88,87,,,,,,,,,,,1.41,0.85,1.13*19

$GPGSV,4,1,15,01,10,058,10,02,20,244,40,03,35,058,09,06,57,246,26*73

$GPGSV,4,2,15,11,01,077,,12,15,319,25,17,76,047,23,19,72,326,*7E

$GPGSV,4,3,15,22,19,045,,23,03,099,,24,15,288,22,28,31,162,23*7D

$GPGSV,4,4,15,46,14,245,41,48,11,249,41,51,27,225,*4E

$GLGSV,3,1,11,65,03,161,,70,07,017,,71,34,061,,72,30,123,*67

$GLGSV,3,2,11,76,02,192,,77,38,238,25,78,37,305,27,79,10,341,25*6E

$GLGSV,3,3,11,86,29,067,07,87,63,346,27,88,30,285,15*50

$GNGLL,4522.91666,N,07155.42723,W,022653.00,A,D*69

$GNRMC,022654.00,A,4522.91659,N,07155.42645,W,0.121,,190318,,,D*7A

$GNVTG,,T,,M,0.121,N,0.224,K,D*3E

$GNGGA,022654.00,4522.91659,N,07155.42645,W,2,11,0.85,270.6,M,-31.5,M,,0000*74

$GNGSA,A,3,02,17,48,24,12,03,28,01,06,,,,1.41,0.85,1.13*15

$GNGSA,A,3,88,87,,,,,,,,,,,1.41,0.85,1.13*19

$GPGSV,4,1,15,01,10,058,10,02,20,244,40,03,35,058,09,06,57,246,26*73

$GPGSV,4,2,15,11,01,077,,12,15,319,24,17,76,047,23,19,72,326,*7F

$GPGSV,4,3,15,22,19,045,,23,03,099,,24,15,288,21,28,31,162,23*7E

$GPGSV,4,4,15,46,14,245,41,48,11,249,41,51,27,225,*4E

$GLGSV,3,1,11,65,03,161,,70,07,017,,71,34,061,,72,30,123,*67

$GLGSV,3,2,11,76,02,192,,77,38,238,25,78,37,305,26,79,10,341,25*6F

$GLGSV,3,3,11,86,29,067,09,87,63,346,27,88,30,285,15*5E

$GNGLL,4522.91659,N,07155.42645,W,022654.00,A,D*63

$GNRMC,022655.00,A,4522.91669,N,07155.42656,W,0.141,,190318,,,D*7C

$GNVTG,,T,,M,0.141,N,0.260,K,D*38

$GNGGA,022655.00,4522.91669,N,07155.42656,W,2,11,0.85,270.7,M,-31.5,M,,0000*75

$GNGSA,A,3,02,17,48,24,12,03,28,01,06,,,,1.41,0.85,1.13*15

$GNGSA,A,3,88,87,,,,,,,,,,,1.41,0.85,1.13*19

$GPGSV,4,1,15,01,10,058,10,02,20,244,39,03,35,058,09,06,57,246,26*7D

$GPGSV,4,2,15,11,01,077,04,12,15,319,24,17,76,047,24,19,72,326,*7C

$GPGSV,4,3,15,22,19,045,,23,03,099,,24,15,288,20,28,31,162,24*78

$GPGSV,4,4,15,46,14,245,40,48,11,249,41,51,27,225,*4F

$GLGSV,3,1,11,65,03,161,,70,07,017,,71,34,061,,72,30,123,*67

$GLGSV,3,2,11,76,02,192,,77,38,238,24,78,37,305,27,79,10,341,25*6F

$GLGSV,3,3,11,86,29,067,10,87,63,346,27,88,30,285,14*57

$GNGLL,4522.91669,N,07155.42656,W,022655.00,A,D*63

$GNRMC,022656.00,A,4522.91680,N,07155.42667,W,0.221,,190318,,,D*7F

$GNVTG,,T,,M,0.221,N,0.409,K,D*34

$GNGGA,022656.00,4522.91680,N,07155.42667,W,2,11,0.85,270.8,M,-31.5,M,,0000*7C

$GNGSA,A,3,02,17,48,24,12,03,28,01,06,,,,1.41,0.85,1.13*15

$GNGSA,A,3,88,87,,,,,,,,,,,1.41,0.85,1.13*19

$GPGSV,4,1,15,01,10,058,13,02,20,244,40,03,35,058,11,06,57,246,26*79

$GPGSV,4,2,15,11,01,077,06,12,15,319,24,17,76,047,25,19,72,326,*7F

$GPGSV,4,3,15,22,19,045,,23,03,099,,24,15,288,20,28,31,162,24*78

$GPGSV,4,4,15,46,14,245,41,48,11,249,41,51,27,225,*4E

$GLGSV,3,1,11,65,03,161,,70,07,017,,71,34,061,,72,30,123,*67

$GLGSV,3,2,11,76,02,192,,77,38,238,25,78,37,305,27,79,10,341,25*6E

$GLGSV,3,3,11,86,29,067,07,87,63,346,27,88,30,285,14*51

$GNGLL,4522.91680,N,07155.42667,W,022656.00,A,D*65

$GNRMC,022657.00,A,4522.91689,N,07155.42680,W,0.176,,190318,,,D*7F

$GNVTG,,T,,M,0.176,N,0.326,K,D*3F

$GNGGA,022657.00,4522.91689,N,07155.42680,W,2,11,0.85,271.0,M,-31.5,M,,0000*74

$GNGSA,A,3,02,17,48,24,12,03,28,01,06,,,,1.41,0.85,1.13*15

$GNGSA,A,3,88,87,,,,,,,,,,,1.41,0.85,1.13*19

$GPGSV,4,1,15,01,10,058,13,02,20,244,40,03,35,058,11,06,57,246,26*79

$GPGSV,4,2,15,11,01,077,08,12,15,319,24,17,76,047,25,19,72,326,*71

$GPGSV,4,3,15,22,19,045,,23,03,099,,24,15,288,20,28,31,162,24*78

$GPGSV,4,4,15,46,14,245,41,48,11,249,41,51,27,225,*4E

$GLGSV,3,1,11,65,03,161,,70,07,017,,71,34,061,,72,30,123,*67

$GLGSV,3,2,11,76,02,192,,77,38,238,24,78,37,305,27,79,10,341,25*6F

$GLGSV,3,3,11,86,29,067,12,87,63,346,27,88,30,285,15*54

$GNGLL,4522.91689,N,07155.42680,W,022657.00,A,D*64

$GNRMC,022658.00,A,4522.91686,N,07155.42669,W,0.080,,190318,,,D*70

$GNVTG,,T,,M,0.080,N,0.149,K,D*3C

$GNGGA,022658.00,4522.91686,N,07155.42669,W,2,11,0.85,271.0,M,-31.5,M,,0000*73

$GNGSA,A,3,02,17,48,24,12,03,28,01,06,,,,1.41,0.85,1.13*15

$GNGSA,A,3,88,87,,,,,,,,,,,1.41,0.85,1.13*19

$GPGSV,4,1,15,01,10,058,13,02,20,244,40,03,35,058,11,06,57,246,25*7A

$GPGSV,4,2,15,11,01,077,08,12,15,319,24,17,76,047,25,19,72,326,20*73

$GPGSV,4,3,15,22,19,045,,23,03,099,,24,15,288,20,28,31,162,23*7F

$GPGSV,4,4,15,46,14,245,41,48,11,249,41,51,27,225,*4E

$GLGSV,3,1,11,65,03,161,,70,07,017,,71,34,061,,72,30,123,*67

$GLGSV,3,2,11,76,02,192,,77,38,238,24,78,37,305,27,79,10,341,24*6E

$GLGSV,3,3,11,86,29,067,08,87,63,346,27,88,30,285,15*5F

$GNGLL,4522.91686,N,07155.42669,W,022658.00,A,D*63

$GNRMC,022659.00,A,4522.91690,N,07155.42669,W,0.107,,190318,,,D*78

$GNVTG,,T,,M,0.107,N,0.198,K,D*3E

$GNGGA,022659.00,4522.91690,N,07155.42669,W,2,11,0.85,271.1,M,-31.5,M,,0000*74

$GNGSA,A,3,02,17,48,24,12,03,28,01,06,,,,1.41,0.85,1.13*15

$GNGSA,A,3,88,87,,,,,,,,,,,1.41,0.85,1.13*19

$GPGSV,4,1,15,01,10,058,13,02,20,244,40,03,35,058,11,06,57,246,24*7B

$GPGSV,4,2,15,11,01,077,07,12,15,319,25,17,76,047,25,19,72,326,20*7D

$GPGSV,4,3,15,22,19,045,,23,03,099,,24,15,288,20,28,31,162,23*7F

$GPGSV,4,4,15,46,14,245,41,48,11,249,41,51,27,225,*4E

$GLGSV,3,1,11,65,03,161,,70,07,017,,71,34,061,,72,30,123,*67

$GLGSV,3,2,11,76,02,192,,77,38,238,24,78,37,305,27,79,10,341,25*6F

$GLGSV,3,3,11,86,29,067,11,87,63,346,27,88,30,285,17*55

$GNGLL,4522.91690,N,07155.42669,W,022659.00,A,D*65

$GNRMC,022700.00,A,4522.91696,N,07155.42640,W,0.075,,190318,,,D*7C

$GNVTG,,T,,M,0.075,N,0.138,K,D*30

$GNGGA,022700.00,4522.91696,N,07155.42640,W,2,10,0.99,270.7,M,-31.5,M,,0000*7F

$GNGSA,A,3,02,17,48,24,12,03,28,06,,,,,1.74,0.99,1.44*1D

$GNGSA,A,3,88,87,,,,,,,,,,,1.74,0.99,1.44*10

$GPGSV,4,1,15,01,10,058,,02,20,244,37,03,35,058,10,06,57,246,23*7F

$GPGSV,4,2,15,11,01,077,06,12,15,319,23,17,76,047,24,19,72,326,19*71

$GPGSV,4,3,15,22,19,045,,23,03,099,,24,15,288,19,28,31,162,21*77

$GPGSV,4,4,15,46,14,245,39,48,11,249,39,51,27,225,*4E

$GLGSV,3,1,11,65,03,161,,70,07,017,,71,34,061,,72,30,123,*67

$GLGSV,3,2,11,76,02,192,,77,38,238,24,78,37,305,27,79,10,341,24*6E

$GLGSV,3,3,11,86,29,067,10,87,63,346,26,88,30,285,17*55

$GNGLL,4522.91696,N,07155.42640,W,022700.00,A,D*65

$GNRMC,022701.00,A,4522.91709,N,07155.42667,W,0.194,,190318,,,D*71

$GNVTG,,T,,M,0.194,N,0.359,K,D*3B

$GNGGA,022701.00,4522.91709,N,07155.42667,W,2,11,0.98,270.8,M,-31.5,M,,0000*73

$GNGSA,A,3,19,02,17,48,24,12,03,28,06,,,,1.62,0.98,1.29*18

$GNGSA,A,3,88,87,,,,,,,,,,,1.62,0.98,1.29*1D

$GPGSV,4,1,15,01,10,058,,02,20,244,32,03,35,058,08,06,57,246,20*70

$GPGSV,4,2,15,11,01,077,08,12,15,319,23,17,76,047,20,19,72,326,19*7B

$GPGSV,4,3,15,22,19,045,,23,03,099,,24,15,288,20,28,31,162,21*7D

$GPGSV,4,4,15,46,14,245,35,48,11,249,34,51,27,225,*4F

$GLGSV,3,1,11,65,03,161,,70,07,017,,71,34,061,,72,30,123,*67

$GLGSV,3,2,11,76,02,192,,77,38,238,25,78,37,305,26,79,10,341,23*69

$GLGSV,3,3,11,86,29,067,10,87,63,346,25,88,30,285,17*56

$GNGLL,4522.91709,N,07155.42667,W,022701.00,A,D*66

$GNRMC,022702.00,A,4522.91723,N,07155.42682,W,0.139,,190318,,,D*76

$GNVTG,,T,,M,0.139,N,0.257,K,D*33

$GNGGA,022702.00,4522.91723,N,07155.42682,W,2,10,1.01,270.9,M,-31.5,M,,0000*72

$GNGSA,A,3,19,02,17,24,12,03,28,06,,,,,1.68,1.01,1.34*13

$GNGSA,A,3,88,87,,,,,,,,,,,1.68,1.01,1.34*1A

$GPGSV,4,1,15,01,10,058,,02,20,244,24,03,35,058,09,06,57,246,20*76

$GPGSV,4,2,15,11,01,077,08,12,15,319,24,17,76,047,18,19,72,326,18*76

$GPGSV,4,3,15,22,19,045,,23,03,099,,24,15,288,22,28,31,162,21*7F

$GPGSV,4,4,15,46,14,245,,48,11,249,,51,27,225,*4E

$GLGSV,3,1,11,65,03,161,,70,07,017,,71,34,061,,72,30,123,*67

$GLGSV,3,2,11,76,02,192,,77,38,238,22,78,37,305,27,79,10,341,21*6D

$GLGSV,3,3,11,86,29,067,10,87,63,346,26,88,30,285,17*55

$GNGLL,4522.91723,N,07155.42682,W,022702.00,A,D*66

$GNRMC,022703.00,A,4522.91734,N,07155.42691,W,0.198,,190318,,,D*78

$GNVTG,,T,,M,0.198,N,0.368,K,D*35

$GNGGA,022703.00,4522.91734,N,07155.42691,W,2,11,0.98,270.9,M,-31.5,M,,0000*77

$GNGSA,A,3,19,02,17,48,24,12,03,28,06,,,,1.62,0.98,1.29*18

$GNGSA,A,3,88,87,,,,,,,,,,,1.62,0.98,1.29*1D

$GPGSV,4,1,15,01,10,058,,02,20,244,39,03,35,058,09,06,57,246,21*7B

$GPGSV,4,2,15,11,01,077,06,12,15,319,23,17,76,047,20,19,72,326,19*75

$GPGSV,4,3,15,22,19,045,,23,03,099,,24,15,288,23,28,31,162,20*7F

$GPGSV,4,4,15,46,14,245,,48,11,249,39,51,27,225,*44

$GLGSV,3,1,11,65,03,161,,70,07,017,,71,34,061,,72,30,123,*67

$GLGSV,3,2,11,76,02,192,,77,38,238,20,78,37,305,27,79,10,341,21*6F

$GLGSV,3,3,11,86,29,067,11,87,63,346,26,88,30,285,16*55

$GNGLL,4522.91734,N,07155.42691,W,022703.00,A,D*63

$GNRMC,022704.00,A,4522.91761,N,07155.42742,W,0.555,,190318,,,D*75

$GNVTG,,T,,M,0.555,N,1.027,K,D*39

$GNGGA,022704.00,4522.91761,N,07155.42742,W,2,11,0.98,271.1,M,-31.5,M,,0000*76

$GNGSA,A,3,19,02,17,48,24,12,03,28,06,,,,1.62,0.98,1.29*18

$GNGSA,A,3,88,87,,,,,,,,,,,1.62,0.98,1.29*1D

$GPGSV,4,1,15,01,10,058,,02,20,244,39,03,35,058,09,06,57,246,24*7E

$GPGSV,4,2,15,11,01,077,08,12,15,319,22,17,76,047,24,19,72,326,19*7E

$GPGSV,4,3,15,22,19,045,,23,03,099,,24,15,288,22,28,31,162,20*7E

$GPGSV,4,4,15,46,14,245,,48,11,249,40,51,27,225,*4A

$GLGSV,3,1,11,65,03,161,,70,07,017,,71,34,061,,72,30,123,*67

$GLGSV,3,2,11,76,02,192,,77,38,238,22,78,37,305,27,79,10,341,21*6D

$GLGSV,3,3,11,86,29,067,11,87,63,346,26,88,30,285,14*57

$GNGLL,4522.91761,N,07155.42742,W,022704.00,A,D*6B

$GNRMC,022705.00,A,4522.91777,N,07155.42767,W,0.617,,190318,,,D*71

$GNVTG,,T,,M,0.617,N,1.143,K,D*3F

$GNGGA,022705.00,4522.91777,N,07155.42767,W,2,11,0.98,271.0,M,-31.5,M,,0000*76

$GNGSA,A,3,19,02,17,48,24,12,03,28,06,,,,1.62,0.98,1.29*18

$GNGSA,A,3,88,87,,,,,,,,,,,1.62,0.98,1.29*1D

$GPGSV,4,1,15,01,10,058,,02,20,244,39,03,35,058,09,06,57,246,23*79

$GPGSV,4,2,15,11,01,077,12,12,15,319,21,17,76,047,26,19,72,326,19*74

$GPGSV,4,3,15,22,19,045,,23,03,099,,24,15,288,23,28,31,162,20*7F

$GPGSV,4,4,15,46,14,245,,48,11,249,39,51,27,225,*44

$GLGSV,3,1,11,65,04,161,,70,07,017,,71,34,061,,72,30,123,*60

$GLGSV,3,2,11,76,02,192,,77,38,238,22,78,37,305,26,79,10,341,22*6F

$GLGSV,3,3,11,86,29,067,10,87,63,346,25,88,30,285,12*53

$GNGLL,4522.91777,N,07155.42767,W,022705.00,A,D*6A

$GNRMC,022706.00,A,4522.91775,N,07155.42761,W,0.275,,190318,,,D*76

$GNVTG,,T,,M,0.275,N,0.510,K,D*3C

$GNGGA,022706.00,4522.91775,N,07155.42761,W,2,11,0.98,271.2,M,-31.5,M,,0000*73

$GNGSA,A,3,19,02,17,48,24,12,03,28,06,,,,1.62,0.98,1.29*18

$GNGSA,A,3,88,87,,,,,,,,,,,1.62,0.98,1.29*1D

$GPGSV,4,1,15,01,10,058,,02,20,244,39,03,35,058,08,06,57,246,22*79

$GPGSV,4,2,15,11,01,077,08,12,15,319,19,17,76,047,26,19,72,326,20*7E

$GPGSV,4,3,15,22,19,045,,23,03,099,,24,15,288,23,28,31,162,20*7F

$GPGSV,4,4,15,46,14,245,,48,11,249,38,51,27,225,*45

$GLGSV,3,1,11,65,04,161,,70,07,017,,71,34,061,,72,30,123,*60

$GLGSV,3,2,11,76,02,192,,77,38,238,22,78,37,305,25,79,10,341,23*6D

$GLGSV,3,3,11,86,29,067,10,87,63,346,26,88,30,285,10*52

$GNGLL,4522.91775,N,07155.42761,W,022706.00,A,D*6D

$GNRMC,022707.00,A,4522.91797,N,07155.42790,W,0.484,,190318,,,D*7D

$GNVTG,,T,,M,0.484,N,0.897,K,D*36

$GNGGA,022707.00,4522.91797,N,07155.42790,W,2,11,0.98,271.2,M,-31.5,M,,0000*70

$GNGSA,A,3,19,02,17,48,24,12,03,28,06,,,,1.62,0.98,1.29*18

$GNGSA,A,3,88,87,,,,,,,,,,,1.62,0.98,1.29*1D

$GPGSV,4,1,15,01,10,058,,02,20,244,34,03,35,058,11,06,57,246,20*7E

$GPGSV,4,2,15,11,01,077,11,12,15,319,18,17,76,047,25,19,72,326,20*74

$GPGSV,4,3,15,22,19,045,,23,03,099,,24,15,288,25,28,31,162,20*79

$GPGSV,4,4,15,46,14,245,,48,11,249,33,51,27,225,*4E

$GLGSV,3,1,11,65,04,161,,70,07,017,,71,34,061,,72,30,123,*60

$GLGSV,3,2,11,76,02,192,,77,38,238,21,78,37,305,25,79,10,341,23*6E

$GLGSV,3,3,11,86,29,067,10,87,63,346,26,88,30,285,12*50

$GNGLL,4522.91797,N,07155.42790,W,022707.00,A,D*6E

$GNRMC,022708.00,A,4522.91819,N,07155.42827,W,0.599,,190318,,,D*75

$GNVTG,,T,,M,0.599,N,1.110,K,D*3C

$GNGGA,022708.00,4522.91819,N,07155.42827,W,2,11,0.98,271.5,M,-31.5,M,,0000*72

$GNGSA,A,3,19,02,17,48,24,12,03,28,06,,,,1.62,0.98,1.29*18

$GNGSA,A,3,88,87,,,,,,,,,,,1.62,0.98,1.29*1D

$GPGSV,4,1,15,01,10,058,,02,20,244,33,03,35,058,08,06,57,246,21*70

$GPGSV,4,2,15,11,01,077,10,12,15,319,16,17,76,047,23,19,72,326,20*7D

$GPGSV,4,3,15,22,19,045,,23,03,099,,24,15,288,25,28,31,162,18*72

$GPGSV,4,4,15,46,14,245,38,48,11,249,34,51,27,225,*42

$GLGSV,3,1,11,65,04,161,,70,07,017,,71,34,061,,72,30,123,*60

$GLGSV,3,2,11,76,02,192,,77,38,238,17,78,37,305,25,79,10,341,22*6A

$GLGSV,3,3,11,86,29,067,10,87,63,346,25,88,30,285,11*50

$GNGLL,4522.91819,N,07155.42827,W,022708.00,A,D*6B

$GNRMC,022709.00,A,4522.91838,N,07155.42858,W,0.777,,190318,,,D*7D

$GNVTG,,T,,M,0.777,N,1.439,K,D*30

$GNGGA,022709.00,4522.91838,N,07155.42858,W,2,10,1.32,271.6,M,-31.5,M,,0000*7B

$GNGSA,A,3,19,02,17,48,24,12,03,06,,,,,1.92,1.32,1.39*1D

$GNGSA,A,3,88,87,,,,,,,,,,,1.92,1.32,1.39*12

$GPGSV,4,1,15,01,10,058,17,02,20,244,33,03,35,058,08,06,57,246,20*77

$GPGSV,4,2,15,11,01,077,08,12,15,319,14,17,76,047,22,19,72,326,21*76

$GPGSV,4,3,15,22,19,045,,23,03,099,,24,15,288,25,28,31,162,*7B

$GPGSV,4,4,15,46,14,245,38,48,11,249,35,51,27,225,*43

$GLGSV,3,1,11,65,04,161,,70,07,017,,71,34,061,,72,30,123,*60

$GLGSV,3,2,11,76,02,192,,77,38,238,16,78,37,305,25,79,10,341,21*68

$GLGSV,3,3,11,86,29,067,07,87,63,346,25,88,30,285,14*53

$GNGLL,4522.91838,N,07155.42858,W,022709.00,A,D*61

$GNRMC,022710.00,A,4522.91875,N,07155.42885,W,1.115,,190318,,,D*7F

$GNVTG,,T,,M,1.115,N,2.065,K,D*3D

$GNGGA,022710.00,4522.91875,N,07155.42885,W,2,10,1.32,271.6,M,-31.5,M,,0000*7A

$GNGSA,A,3,19,02,17,48,24,12,03,06,,,,,1.92,1.32,1.39*1D

$GNGSA,A,3,88,87,,,,,,,,,,,1.92,1.32,1.39*12

$GPGSV,4,1,15,01,10,058,15,02,20,244,30,03,35,058,13,06,57,246,22*7E

